[{"id"  :"1","date"  :"2021년 07월 07일 21시","able"  :"○","sido"  :"서울","sigungu"  :"강남구","name"  :"강남구보건소","addr"  :"서울 강남구 삼성동(삼성2동) 8 강남구보건소","latitude"  :"37.5162581","longitude"  :"127.042214","opertimew"  :"09:00 ~ 19:00","opertimet"  :"09:00 ~ 17:00","opertimes"  :"09:00 ~ 17:00","tel"  :"02-3423-5555\r"},{"id"  :"2","date"  :"2021년 07월 07일 21시","able"  :"○","sido"  :"서울","sigungu"  :"강남구","name"  :"삼성서울병원","addr"  :"서울 강남구 일원로81 삼성서울병원","latitude"  :"37.4889432","longitude"  :"127.0876424","opertimew"  :"09:00 ~ 16:30","opertimet"  :"09:00 ~ 16:30","opertimes"  :"09:00 ~ 16:30","tel"  :"02-1599-3114\r"},{"id"  :"3","date"  :"2021년 07월 07일 21시","able"  :"○","sido"  :"서울","sigungu"  :"강남구","name"  :"강남세브란스병원","addr"  :"서울 강남구 언주로211 강남세브란스병원","latitude"  :"37.492736","longitude"  :"127.0462661","opertimew"  :"09:00 ~ 17:00","opertimet"  :"09:00 ~ 12:30","opertimes"  :"미운영","tel"  :"02-1599-6114\r"},{"id"  :"4","date"  :"2021년 07월 07일 21시","able"  :"○","sido"  :"서울","sigungu"  :"강동구","name"  :"강동구보건소","addr"  :"서울 강동구 성내동 541-2","latitude"  :"37.5293701","longitude"  :"127.1255567","opertimew"  :"09:00 ~ 21:00","opertimet"  :"09:00 ~ 18:00","opertimes"  :"09:00 ~ 18:00","tel"  :"02-3425-6713\r"},{"id"  :"5","date"  :"2021년 07월 07일 21시","able"  :"○","sido"  :"서울","sigungu"  :"강동구","name"  :"중앙보훈병원","addr"  :"서울 강동구 진황도로 61길 53","latitude"  :"37.528778","longitude"  :"127.1476066","opertimew"  :"09:00 ~ 17:30","opertimet"  :"미운영","opertimes"  :"미운영","tel"  :"02-2225-1114\r"},{"id"  :"6","date"  :"2021년 07월 07일 21시","able"  :"○","sido"  :"서울","sigungu"  :"강동구","name"  :"강동경희대병원","addr"  :"서울시 강동구 동남로 892","latitude"  :"37.5528301","longitude"  :"127.1571983","opertimew"  :"09:00 ~ 17:00","opertimet"  :"09:00 ~ 12:00","opertimes"  :"미운영","tel"  :"02-440-7000\r"},{"id"  :"7","date"  :"2021년 07월 07일 21시","able"  :"○","sido"  :"서울","sigungu"  :"강동구","name"  :"강동성심병원","addr"  :"서울시 강동구 성안로 150","latitude"  :"37.5361","longitude"  :"127.1353505","opertimew"  :"08:30 ~ 16:30","opertimet"  :"08:30 ~ 11:30","opertimes"  :"미운영","tel"  :"1588-4100\r"},{"id"  :"8","date"  :"2021년 07월 07일 21시","able"  :"○","sido"  :"서울","sigungu"  :"강북구","name"  :"강북구보건소","addr"  :"서울 강북구 한천로 897, 강북구보건소","latitude"  :"37.6320834","longitude"  :"127.0387673","opertimew"  :"09:00 ~ 21:00","opertimet"  :"09:00 ~ 18:00","opertimes"  :"09:00 ~ 18:00","tel"  :"02-901-7704.7706\r"},{"id"  :"9","date"  :"2021년 07월 07일 21시","able"  :"○","sido"  :"서울","sigungu"  :"강서구","name"  :"강서구보건소","addr"  :"서울 강서구 염창동 275-12 강서보건소","latitude"  :"37.5496053","longitude"  :"126.868277","opertimew"  :"09:00 ~ 21:00","opertimet"  :"09:00 ~ 18:00","opertimes"  :"09:00 ~ 18:00","tel"  :"02-2600-5465\r"},{"id"  :"10","date"  :"2021년 07월 07일 21시","able"  :"○","sido"  :"서울","sigungu"  :"관악구","name"  :"관악구보건소","addr"  :"서울 관악구 청룡동 1570-1 ","latitude"  :"37.478321","longitude"  :"126.9512138","opertimew"  :"09:00 ~ 18:00","opertimet"  :"09:00 ~ 18:00","opertimes"  :"09:00 ~ 13:00","tel"  :"02-879-7133/7136\r"},{"id"  :"11","date"  :"2021년 07월 07일 21시","able"  :"○","sido"  :"서울","sigungu"  :"관악구","name"  :"에이치플러스양지병원","addr"  :"서울특별시 관악구 남부순환로 1636","latitude"  :"37.4842166","longitude"  :"126.9325109","opertimew"  :"08:30 ~ 17:00","opertimet"  :"08:30 ~ 12:30","opertimes"  :"미운영","tel"  :"1877-8875\r"},{"id"  :"12","date"  :"2021년 07월 07일 21시","able"  :"○","sido"  :"서울","sigungu"  :"광진구","name"  :"광진구보건소","addr"  :"서울특별시 광진구 자양1동 777","latitude"  :"37.5383742","longitude"  :"127.0822077","opertimew"  :"09:00 ~ 18:00","opertimet"  :"09:00 ~ 16:00","opertimes"  :"09:00 ~ 16:00","tel"  :"02-450-7090\r"},{"id"  :"13","date"  :"2021년 07월 07일 21시","able"  :"○","sido"  :"서울","sigungu"  :"광진구","name"  :"건국대학교병원","addr"  :"서울특별시 광진구 능동로 120-1","latitude"  :"37.5408245","longitude"  :"127.0722209","opertimew"  :"08:30 ~ 17:00","opertimet"  :"08:30 ~ 12:00","opertimes"  :"미운영","tel"  :"02-1588-1533\r"},{"id"  :"14","date"  :"2021년 07월 07일 21시","able"  :"○","sido"  :"서울","sigungu"  :"구로구","name"  :"구로구보건소","addr"  :"서울 구로구 구로동(구로제5동) 109-4 구로5동 주민센터, 구로구보건소","latitude"  :"37.500076","longitude"  :"126.8893241","opertimew"  :"09:00 ~ 21:00","opertimet"  :"09:00 ~ 18:00","opertimes"  :"09:00 ~ 18:00","tel"  :"02-860-2012\r"},{"id"  :"15","date"  :"2021년 07월 07일 21시","able"  :"○","sido"  :"서울","sigungu"  :"구로구","name"  :"고대구로병원","addr"  :"구로동로 148","latitude"  :"37.4903981","longitude"  :"126.884454","opertimew"  :"09:00 ~ 17:30","opertimet"  :"미운영","opertimes"  :"미운영","tel"  :"02-2626-1554\r"},{"id"  :"16","date"  :"2021년 07월 07일 21시","able"  :"○","sido"  :"서울","sigungu"  :"구로구","name"  :"구로성심병원","addr"  :"경인로 427","latitude"  :"37.4996208","longitude"  :"126.866356","opertimew"  :"09:00 ~ 17:30","opertimet"  :"09:00 ~ 12:30","opertimes"  :"미운영","tel"  :"02-2067-1500\r"},{"id"  :"17","date"  :"2021년 07월 07일 21시","able"  :"○","sido"  :"서울","sigungu"  :"금천구","name"  :"금천구보건소","addr"  :"서울 금천구 시흥제1동 1020 금천구보건소 ","latitude"  :"37.4570498","longitude"  :"126.8959514","opertimew"  :"09:00 ~ 21:00","opertimet"  :"09:00 ~ 18:00","opertimes"  :"09:00 ~ 18:00","tel"  :"02-2627-2717\r"},{"id"  :"18","date"  :"2021년 07월 07일 21시","able"  :"○","sido"  :"서울","sigungu"  :"금천구","name"  :"희명병원","addr"  :"서울특별시 금천구 시흥대로 244","latitude"  :"37.4556417","longitude"  :"126.9005666","opertimew"  :"09:00 ~ 17:00","opertimet"  :"09:00 ~ 12:00","opertimes"  :"09:00 ~ 17:00","tel"  :"02-2219-7231\r"},{"id"  :"19","date"  :"2021년 07월 07일 21시","able"  :"○","sido"  :"서울","sigungu"  :"노원구","name"  :"노원구보건소","addr"  :"서울 노원구 상계6.7동 노원구보건소, 701-1","latitude"  :"37.6545591","longitude"  :"127.056999","opertimew"  :"09:00 ~ 21:00","opertimet"  :"09:00 ~ 18:00","opertimes"  :"13:00 ~ 17:00","tel"  :"02-2116-3000\r"},{"id"  :"20","date"  :"2021년 07월 07일 21시","able"  :"○","sido"  :"서울","sigungu"  :"노원구","name"  :"노원을지대학교병원","addr"  :"서울 노원구 한글비석로 68","latitude"  :"37.6363293","longitude"  :"127.0697068","opertimew"  :"09:00 ~ 17:00","opertimet"  :"미운영","opertimes"  :"미운영","tel"  :"02-970-8000\r"},{"id"  :"21","date"  :"2021년 07월 07일 21시","able"  :"○","sido"  :"서울","sigungu"  :"노원구","name"  :"상계백병원","addr"  :"서울 노원구 동일로 1342","latitude"  :"37.6486101","longitude"  :"127.0630785","opertimew"  :"09:00 ~ 16:00","opertimet"  :"미운영","opertimes"  :"미운영","tel"  :"02-950-1114\r"},{"id"  :"22","date"  :"2021년 07월 07일 21시","able"  :"○","sido"  :"서울","sigungu"  :"도봉구","name"  :"도봉구보건소","addr"  :"서울 도봉구 쌍문동 565","latitude"  :"37.6580211","longitude"  :"127.0387508","opertimew"  :"09:00 ~ 18:00","opertimet"  :"09:00 ~ 15:00","opertimes"  :"09:00 ~ 15:00","tel"  :"02-2091-4434\r"},{"id"  :"23","date"  :"2021년 07월 07일 21시","able"  :"○","sido"  :"서울","sigungu"  :"도봉구","name"  :"한일병원","addr"  :"서울시 도봉구 우이천로 308(쌍문동) ","latitude"  :"37.6500586","longitude"  :"127.0262078","opertimew"  :"9:00 ~ 17:30","opertimet"  :"미운영","opertimes"  :"미운영","tel"  :"02-901-3114\r"},{"id"  :"24","date"  :"2021년 07월 07일 21시","able"  :"○","sido"  :"서울","sigungu"  :"동대문구","name"  :"동대문구보건소","addr"  :"서울 동대문구 용두동 39-9 ","latitude"  :"37.5742015","longitude"  :"127.0398327","opertimew"  :"09:00 ~ 18:00","opertimet"  :"09:00 ~ 15:00","opertimes"  :"09:00 ~ 15:00","tel"  :"02-2127-4283\r"},{"id"  :"25","date"  :"2021년 07월 07일 21시","able"  :"○","sido"  :"서울","sigungu"  :"동대문구","name"  :"삼육서울병원","addr"  :"서울 동대문구 망우로 82","latitude"  :"37.5892778","longitude"  :"127.0645418","opertimew"  :"09:00 ~ 16:30","opertimet"  :"미운영","opertimes"  :"09:00 ~ 16:30","tel"  :"1577-3675\r"},{"id"  :"26","date"  :"2021년 07월 07일 21시","able"  :"○","sido"  :"서울","sigungu"  :"동대문구","name"  :"서울특별시동부병원","addr"  :"서울 동대문구 무학로 124 ","latitude"  :"37.575312","longitude"  :"127.03151","opertimew"  :"09:00 ~ 17:30","opertimet"  :"09:00 ~ 12:30","opertimes"  :"09:00 ~ 12:30","tel"  :"920-9435/9119\r"},{"id"  :"27","date"  :"2021년 07월 07일 21시","able"  :"○","sido"  :"서울","sigungu"  :"동대문구","name"  :"서울성심병원","addr"  :"서울 동대문구 왕산로 259","latitude"  :"37.584392","longitude"  :"127.0497209","opertimew"  :"09:00 ~ 16:00","opertimet"  :"미운영","opertimes"  :"미운영","tel"  :"966-1616\r"},{"id"  :"28","date"  :"2021년 07월 07일 21시","able"  :"○","sido"  :"서울","sigungu"  :"동대문구","name"  :"경희의료원","addr"  :"서울 동대문구 경희대로 23","latitude"  :"37.5953632","longitude"  :"127.0527612","opertimew"  :"08:30 ~ 16:40","opertimet"  :"09:00 ~ 12:30","opertimes"  :"미운영","tel"  :"958-8114\r"},{"id"  :"29","date"  :"2021년 07월 07일 21시","able"  :"○","sido"  :"서울","sigungu"  :"동작구","name"  :"동작구보건소","addr"  :"서울 동작구 상도2동 176-3","latitude"  :"37.5043975","longitude"  :"126.9410466","opertimew"  :"09:00 ~ 18:00","opertimet"  :"09:00 ~ 15:00","opertimes"  :"09:00 ~ 15:00","tel"  :"02-820-9465\r"},{"id"  :"30","date"  :"2021년 07월 07일 21시","able"  :"○","sido"  :"서울","sigungu"  :"동작구","name"  :"서울특별시 보라매병원","addr"  :"동작구 보라매로5길 20","latitude"  :"37.4932234","longitude"  :"126.9244612","opertimew"  :"09:00 ~ 17:30","opertimet"  :"09:00 ~ 12:30","opertimes"  :"09:00 ~ 12:30","tel"  :"02-870-2114\r"},{"id"  :"31","date"  :"2021년 07월 07일 21시","able"  :"○","sido"  :"서울","sigungu"  :"동작구","name"  :"서울특별시 중앙대학교 병원","addr"  :"서울특별시 동작구 흑석로 102","latitude"  :"37.5069754","longitude"  :"126.9605231","opertimew"  :"08:30 ~ 17:00","opertimet"  :"08:30 ~ 12:00","opertimes"  :"미운영","tel"  :"1800-1114\r"},{"id"  :"32","date"  :"2021년 07월 07일 21시","able"  :"○","sido"  :"서울","sigungu"  :"마포구","name"  :"마포구보건소","addr"  :"서울 마포구 성산동 370","latitude"  :"37.5663123","longitude"  :"126.9020797","opertimew"  :"09:00 ~ 21:00","opertimet"  :"09:00 ~ 18:00","opertimes"  :"09:00 ~ 18:00","tel"  :"02-3153-9037\r"},{"id"  :"33","date"  :"2021년 07월 07일 21시","able"  :"○","sido"  :"서울","sigungu"  :"서대문구","name"  :"서대문구보건소","addr"  :"서울 서대문구 연희동  연희로242 (연희동 165-2)","latitude"  :"37.5785747","longitude"  :"126.9362575","opertimew"  :"09:00 ~ 21:00","opertimet"  :"09:00 ~ 18:00","opertimes"  :"09:00 ~ 18:00","tel"  :"02-330-1806\r"},{"id"  :"34","date"  :"2021년 07월 07일 21시","able"  :"○","sido"  :"서울","sigungu"  :"서대문구","name"  :"세브란스병원","addr"  :"연세로 50-1","latitude"  :"37.564089","longitude"  :"126.9389809","opertimew"  :"06:00 ~ 06:00","opertimet"  :"06:00 ~ 06:00","opertimes"  :"06:00 ~ 06:00","tel"  :"1599-1004\r"},{"id"  :"35","date"  :"2021년 07월 07일 21시","able"  :"○","sido"  :"서울","sigungu"  :"중구","name"  :"서울중구보건소","addr"  :"서울 중구 신당동 50-5 중구보건소  ","latitude"  :"37.5645417","longitude"  :"127.0151473","opertimew"  :"09:00 ~ 21:00","opertimet"  :"09:00 ~ 18:00","opertimes"  :"09:00 ~ 18:00","tel"  :"02-3396-5181\r"},{"id"  :"36","date"  :"2021년 07월 07일 21시","able"  :"○","sido"  :"서울","sigungu"  :"중구","name"  :"인제대학교서울백병원","addr"  :"서울 중구 마른내로 9 백병원","latitude"  :"37.5649096","longitude"  :"126.9887525","opertimew"  :"00:00 ~ 00:00","opertimet"  :"00:00 ~ 00:00","opertimes"  :"00:00 ~ 00:00","tel"  :"02-2270-0114\r"},{"id"  :"37","date"  :"2021년 07월 07일 21시","able"  :"○","sido"  :"서울","sigungu"  :"중구","name"  :"국립중앙의료원","addr"  :"중구 을지로 245","latitude"  :"37.5674232","longitude"  :"127.0059029","opertimew"  :"00:00 ~ 00:00","opertimet"  :"00:00 ~ 00:00","opertimes"  :"00:00 ~ 00:00","tel"  :"02-2260-7114\r"},{"id"  :"38","date"  :"2021년 07월 07일 21시","able"  :"○","sido"  :"서울","sigungu"  :"서초구","name"  :"서초구보건소","addr"  :"서울 서초구 서초동(서초2동) 1376-3 서초구청 보건소","latitude"  :"37.4836015","longitude"  :"127.0334387","opertimew"  :"09:00 ~ 18:00","opertimet"  :"09:00 ~ 17:00","opertimes"  :"09:00 ~ 17:00","tel"  :"02-2155-8093\r"},{"id"  :"39","date"  :"2021년 07월 07일 21시","able"  :"○","sido"  :"서울","sigungu"  :"서초구","name"  :"가톨릭대학교 서울성모병원","addr"  :"서울시 서초구 반포대로 222","latitude"  :"37.5003974","longitude"  :"127.0066599","opertimew"  :"08:00 ~ 16:30","opertimet"  :"08:00 ~ 12:00","opertimes"  :"미운영","tel"  :"02-1588-1511\r"},{"id"  :"40","date"  :"2021년 07월 07일 21시","able"  :"○","sido"  :"서울","sigungu"  :"서초구","name"  :"서울특별시 어린이병원","addr"  :"서울특별시 서초구 헌릉로 260","latitude"  :"37.4554808","longitude"  :"127.0688387","opertimew"  :"10:00 ~ 15:00","opertimet"  :"미운영","opertimes"  :"미운영","tel"  :"02-570-8000\r"},{"id"  :"41","date"  :"2021년 07월 07일 21시","able"  :"○","sido"  :"서울","sigungu"  :"성동구","name"  :"성동구보건소","addr"  :"서울 성동구 홍익동 (왕십리도선동) 16-15 성동구보건소 ","latitude"  :"37.5670357","longitude"  :"127.0331864","opertimew"  :"09:00 ~ 21:00","opertimet"  :"09:00 ~ 18:00","opertimes"  :"09:00 ~ 18:00","tel"  :"02-2286-7172\r"},{"id"  :"42","date"  :"2021년 07월 07일 21시","able"  :"○","sido"  :"서울","sigungu"  :"성동구","name"  :"한양대학교병원","addr"  :"서울특별시 성동구 왕십리로 222-1 (사근동)","latitude"  :"37.5622917","longitude"  :"127.0468607","opertimew"  :"09:00 ~ 17:30","opertimet"  :"09:00 ~ 12:30","opertimes"  :"미운영","tel"  :"02-2290-8114/8531\r"},{"id"  :"43","date"  :"2021년 07월 07일 21시","able"  :"○","sido"  :"서울","sigungu"  :"성동구","name"  :"성동군자의원","addr"  :"서울특별시 성동구 광나루로 323 송정빌딩 2층","latitude"  :"37.5483997","longitude"  :"127.0656559","opertimew"  :"09:00 ~ 18:00","opertimet"  :"미운영","opertimes"  :"미운영","tel"  :"02-499-7785\r"},{"id"  :"44","date"  :"2021년 07월 07일 21시","able"  :"○","sido"  :"서울","sigungu"  :"성북구","name"  :"성북구보건소","addr"  :"서울 성북구 월곡제2동 46-1 성북구보건소 ","latitude"  :"37.6026426","longitude"  :"127.0395181","opertimew"  :"09:00 ~ 21:00","opertimet"  :"09:00 ~ 18:00","opertimes"  :"09:00 ~ 18:00","tel"  :"02-2241-5912\r"},{"id"  :"45","date"  :"2021년 07월 07일 21시","able"  :"○","sido"  :"서울","sigungu"  :"성북구","name"  :"고려대학교의료원안암병원","addr"  :"고려대로73(안암동 5가)","latitude"  :"37.5870416","longitude"  :"127.0265402","opertimew"  :"09:00 ~ 16:00","opertimet"  :"09:00 ~ 12:30","opertimes"  :"미운영","tel"  :"1577-0083\r"},{"id"  :"46","date"  :"2021년 07월 07일 21시","able"  :"○","sido"  :"서울","sigungu"  :"송파구","name"  :"송파구보건소","addr"  :"서울 송파구 신천동 29-5 송파구청, 보건소 ","latitude"  :"37.514543","longitude"  :"127.106542","opertimew"  :"09:00 ~ 21:00","opertimet"  :"09:00 ~ 18:00","opertimes"  :"09:00 ~ 18:00","tel"  :"02-2147-3479\r"},{"id"  :"47","date"  :"2021년 07월 07일 21시","able"  :"○","sido"  :"서울","sigungu"  :"송파구","name"  :"서울아산병원","addr"  :"올림픽로43길 88","latitude"  :"37.5254548","longitude"  :"127.1084185","opertimew"  :"08:00 ~ 23:00","opertimet"  :"08:00 ~ 23:00","opertimes"  :"08:0 ~ 23:0","tel"  :"02-1688-7575\r"},{"id"  :"48","date"  :"2021년 07월 07일 21시","able"  :"○","sido"  :"서울","sigungu"  :"송파구","name"  :"경찰병원","addr"  :"송이로 123","latitude"  :"37.4964365","longitude"  :"127.1233624","opertimew"  :"9:00 ~ 16:00","opertimet"  :"미운영","opertimes"  :"미운영","tel"  :"02-3400-1114\r"},{"id"  :"49","date"  :"2021년 07월 07일 21시","able"  :"○","sido"  :"서울","sigungu"  :"양천구","name"  :"양천구보건소","addr"  :"서울 양천구 신정동(신정6동) 321-5 양천보건소","latitude"  :"37.5175388","longitude"  :"126.8658707","opertimew"  :"09:00 ~ 21:00","opertimet"  :"09:00 ~ 18:00","opertimes"  :"09:00 ~ 18:00","tel"  :"02-2620-3856\r"},{"id"  :"50","date"  :"2021년 07월 07일 21시","able"  :"○","sido"  :"서울","sigungu"  :"양천구","name"  :"이화여자대학교의과대학부속목동병원","addr"  :"서울 양천구 안양천로 1071 ","latitude"  :"37.5363794","longitude"  :"126.8864324","opertimew"  :"09:00 ~ 15:30","opertimet"  :"미운영","opertimes"  :"미운영","tel"  :"1666-5000\r"},{"id"  :"51","date"  :"2021년 07월 07일 21시","able"  :"○","sido"  :"서울","sigungu"  :"양천구","name"  :"서울특별시 서남병원","addr"  :"양천구 신정이펜1로 20","latitude"  :"37.5124059","longitude"  :"126.8331164","opertimew"  :"09:00 ~ 18:00","opertimet"  :"09:00 ~ 18:00","opertimes"  :"09:00 ~ 18:00","tel"  :"1566-6688\r"},{"id"  :"52","date"  :"2021년 07월 07일 21시","able"  :"○","sido"  :"서울","sigungu"  :"양천구","name"  :"홍익병원","addr"  :"서울 양천구 목동로 225 ","latitude"  :"37.5284349","longitude"  :"126.8636189","opertimew"  :"09:00 ~ 17:00","opertimet"  :"09:00 ~ 17:00","opertimes"  :"09:00 ~ 17:00","tel"  :"02-2693-5555\r"},{"id"  :"53","date"  :"2021년 07월 07일 21시","able"  :"○","sido"  :"서울","sigungu"  :"영등포구","name"  :"영등포구보건소","addr"  :"서울 영등포구 당산동3가(당산제1동) 385-1 영등포구청 영등포구보건소","latitude"  :"37.5264549","longitude"  :"126.8955343","opertimew"  :"09:00 ~ 18:00","opertimet"  :"09:00 ~ 18:00","opertimes"  :"09:00 ~ 18:00","tel"  :"02-2670-4953\r"},{"id"  :"54","date"  :"2021년 07월 07일 21시","able"  :"○","sido"  :"서울","sigungu"  :"영등포구","name"  :"한림대학교 강남성심병원","addr"  :"서울특별시 영등포구 신길로 1","latitude"  :"37.4934858","longitude"  :"126.9077859","opertimew"  :"08:30 ~ 16:30","opertimet"  :"08:30 ~ 11:30","opertimes"  :"미운영","tel"  :"1577-5587\r"},{"id"  :"55","date"  :"2021년 07월 07일 21시","able"  :"○","sido"  :"서울","sigungu"  :"영등포구","name"  :"의료법인 성애병원","addr"  :"서울특별시 영등포구 여의대방로 53길22","latitude"  :"37.5120291","longitude"  :"126.9223827","opertimew"  :"09:00 ~ 17:00","opertimet"  :"미운영","opertimes"  :"미운영","tel"  :"02-840-7115\r"},{"id"  :"56","date"  :"2021년 07월 07일 21시","able"  :"○","sido"  :"서울","sigungu"  :"영등포구","name"  :"가톨릭대학교 여의도성모병원","addr"  :"서울특별시 영등포구 63로 10","latitude"  :"37.5179713","longitude"  :"126.936089","opertimew"  :"08:30 ~ 16:30","opertimet"  :"미운영","opertimes"  :"미운영","tel"  :"1661-7575\r"},{"id"  :"57","date"  :"2021년 07월 07일 21시","able"  :"○","sido"  :"서울","sigungu"  :"영등포구","name"  :"인봉의료재단 영등포병원","addr"  :"서울특별시 영등포구 당산로31길 10","latitude"  :"37.5268013","longitude"  :"126.8959163","opertimew"  :"09:00 ~ 16:30","opertimet"  :"09:00 ~ 11:00","opertimes"  :"미운영","tel"  :"010-5334-7708\r"},{"id"  :"58","date"  :"2021년 07월 07일 21시","able"  :"○","sido"  :"서울","sigungu"  :"용산구","name"  :"용산구보건소","addr"  :"서울 용산구 이태원동 34-87","latitude"  :"37.5324201","longitude"  :"126.9903488","opertimew"  :"09:00 ~ 21:00","opertimet"  :"09:00 ~ 18:00","opertimes"  :"09:00 ~ 18:00","tel"  :"02-2199-8373~6\r"},{"id"  :"59","date"  :"2021년 07월 07일 21시","able"  :"○","sido"  :"서울","sigungu"  :"용산구","name"  :"순천향대학교서울병원","addr"  :"용산구 대사관로 59(한남동)","latitude"  :"37.5339355","longitude"  :"127.0043336","opertimew"  :"08:30 ~ 17:00","opertimet"  :"08:30 ~ 12:00","opertimes"  :"미운영","tel"  :"02-709-9114\r"},{"id"  :"60","date"  :"2021년 07월 07일 21시","able"  :"○","sido"  :"서울","sigungu"  :"은평구","name"  :"은평구보건소","addr"  :"서울 은평구 녹번동 84 은평구종합청사 은평구보건소","latitude"  :"37.6024522","longitude"  :"126.9288474","opertimew"  :"09:00 ~ 21:00","opertimet"  :"09:00 ~ 18:00","opertimes"  :"09:00 ~ 18:00","tel"  :"02-351-8640~1\r"},{"id"  :"61","date"  :"2021년 07월 07일 21시","able"  :"○","sido"  :"서울","sigungu"  :"은평구","name"  :"가톨릭대학교 은평성모병원","addr"  :"은평구 통일로1021","latitude"  :"37.6338843","longitude"  :"126.9165592","opertimew"  :"08:30 ~ 16:30","opertimet"  :"미운영","opertimes"  :"미운영","tel"  :"1811-7755\r"},{"id"  :"62","date"  :"2021년 07월 07일 21시","able"  :"○","sido"  :"서울","sigungu"  :"은평구","name"  :"서울특별시서북병원","addr"  :"은평구 갈현로7길 49","latitude"  :"37.6041552","longitude"  :"126.9048703","opertimew"  :"09:00 ~ 18:00","opertimet"  :"09:00 ~ 12:00","opertimes"  :"미운영","tel"  :"02-3156-3022\r"},{"id"  :"63","date"  :"2021년 07월 07일 21시","able"  :"○","sido"  :"서울","sigungu"  :"은평구","name"  :"서울특별시은평병원","addr"  :"은평구 백련산로 90","latitude"  :"37.5937651","longitude"  :"126.9236307","opertimew"  :"10:00 ~ 17:00","opertimet"  :"미운영","opertimes"  :"미운영","tel"  :"02-300-8060\r"},{"id"  :"64","date"  :"2021년 07월 07일 21시","able"  :"○","sido"  :"서울","sigungu"  :"은평구","name"  :"의료법인 청구성심병원","addr"  :"서울 은평구 통일로 873","latitude"  :"37.6207324","longitude"  :"126.9194449","opertimew"  :"09:00 ~ 18:00","opertimet"  :"미운영","opertimes"  :"10:00 ~ 17:30","tel"  :"350-3300\r"},{"id"  :"65","date"  :"2021년 07월 07일 21시","able"  :"○","sido"  :"서울","sigungu"  :"종로구","name"  :"종로구보건소","addr"  :"서울 종로구 옥인동(청운효자동) 45-30 종로구보건소","latitude"  :"37.5817685","longitude"  :"126.9692571","opertimew"  :"09:00 ~ 21:00","opertimet"  :"09:00 ~ 18:00","opertimes"  :"09:00 ~ 18:00","tel"  :"02-2148-3725\r"},{"id"  :"66","date"  :"2021년 07월 07일 21시","able"  :"○","sido"  :"서울","sigungu"  :"종로구","name"  :"강북삼성병원","addr"  :"서울시 종로구 평동 108","latitude"  :"37.5679115","longitude"  :"126.9664449","opertimew"  :"08:00 ~ 17:00","opertimet"  :"08:00 ~ 12:00","opertimes"  :"미운영","tel"  :"02-2001-1896\r"},{"id"  :"67","date"  :"2021년 07월 07일 21시","able"  :"○","sido"  :"서울","sigungu"  :"종로구","name"  :"서울적십자병원","addr"  :"서울시 종로구 평동 164","latitude"  :"37.5671402","longitude"  :"126.9670566","opertimew"  :"09:00 ~ 17:00","opertimet"  :"미운영","opertimes"  :"미운영","tel"  :"02-2002-8650\r"},{"id"  :"68","date"  :"2021년 07월 07일 21시","able"  :"○","sido"  :"서울","sigungu"  :"종로구","name"  :"서울대학교병원","addr"  :"서울시 종로구 대학로 101(연건동)","latitude"  :"37.5787974","longitude"  :"127.0010352","opertimew"  :"10:00 ~ 16:00","opertimet"  :"미운영","opertimes"  :"미운영","tel"  :"1588-5700\r"},{"id"  :"69","date"  :"2021년 07월 07일 21시","able"  :"○","sido"  :"서울","sigungu"  :"중랑구","name"  :"중랑구보건소","addr"  :"서울 중랑구 신내2동 662 중랑구청 ","latitude"  :"37.60656","longitude"  :"127.092624","opertimew"  :"09:00 ~ 21:00","opertimet"  :"09:00 ~ 18:00","opertimes"  :"09:00 ~ 18:00","tel"  :"02-2094-0800\r"},{"id"  :"70","date"  :"2021년 07월 07일 21시","able"  :"○","sido"  :"서울","sigungu"  :"중랑구","name"  :"서울의료원","addr"  :"중랑구 신내로 156","latitude"  :"37.613036","longitude"  :"127.0984134","opertimew"  :"09:00 ~ 17:00","opertimet"  :"09:00 ~ 12:00","opertimes"  :"09:00 ~ 12:00","tel"  :"02-2276-8333\r"},{"id"  :"71","date"  :"2021년 07월 07일 21시","able"  :"○","sido"  :"서울","sigungu"  :"중랑구","name"  :"녹색병원","addr"  :"중랑구 사가정로 49길 53","latitude"  :"37.5835002","longitude"  :"127.0861511","opertimew"  :"08:30 ~ 17:30","opertimet"  :"08:30 ~ 12:30","opertimes"  :"미운영","tel"  :"02-490-2000\r"},{"id"  :"72","date"  :"2021년 07월 07일 21시","able"  :"○","sido"  :"부산","sigungu"  :"강서구","name"  :"부산강서구보건소","addr"  :"부산 강서구 대저2동 1932-1 강서브라이트센터 보건소","latitude"  :"35.1804359","longitude"  :"128.9571993","opertimew"  :"09:00 ~ 18:00","opertimet"  :"9:00 ~ 18:00","opertimes"  :"09:00 ~ 14:00","tel"  :"051-970-3415\r"},{"id"  :"73","date"  :"2021년 07월 07일 21시","able"  :"○","sido"  :"부산","sigungu"  :"강서구","name"  :"의료법인 갑을녹산재단 갑을녹산병원","addr"  :"녹산산단321로 24-8","latitude"  :"35.0906026","longitude"  :"128.8533057","opertimew"  :"09:00 ~ 17:00","opertimet"  :"09:00 ~ 13:00","opertimes"  :"미운영","tel"  :"051-974-8449\r"},{"id"  :"74","date"  :"2021년 07월 07일 21시","able"  :"○","sido"  :"부산","sigungu"  :"금정구","name"  :"금정구보건소","addr"  :"부산광역시 금정구 부곡3동 78","latitude"  :"35.2428426","longitude"  :"129.0921739","opertimew"  :"09:00 ~ 18:00","opertimet"  :"09:00 ~ 18:00","opertimes"  :"09:00 ~ 14:00","tel"  :"051-519-5051\r"},{"id"  :"75","date"  :"2021년 07월 07일 21시","able"  :"○","sido"  :"부산","sigungu"  :"금정구","name"  :"세웅병원","addr"  :"부산광역시 금정구 서동로 162(서동)","latitude"  :"35.214399","longitude"  :"129.1040842","opertimew"  :"09:00 ~ 17:00","opertimet"  :"09:00 ~ 12:30","opertimes"  :"미운영","tel"  :"051-500-9700\r"},{"id"  :"76","date"  :"2021년 07월 07일 21시","able"  :"○","sido"  :"부산","sigungu"  :"기장군","name"  :"기장군보건소","addr"  :"부산 기장군 기장읍 신천리 1번지","latitude"  :"35.2435223","longitude"  :"129.2229656","opertimew"  :"09:00 ~ 18:00","opertimet"  :"09:00 ~ 18:00","opertimes"  :"09:00 ~ 14:00","tel"  :"05170984796\r"},{"id"  :"77","date"  :"2021년 07월 07일 21시","able"  :"○","sido"  :"부산","sigungu"  :"기장군","name"  :"동남권원자력의학원","addr"  :"부산광역시 기장군 장안읍 좌동길 40","latitude"  :"35.3214832","longitude"  :"129.243613","opertimew"  :"08:30 ~ 17:30","opertimet"  :"08:30 ~ 12:30","opertimes"  :"미운영","tel"  :"051-720-5114\r"},{"id"  :"78","date"  :"2021년 07월 07일 21시","able"  :"○","sido"  :"부산","sigungu"  :"기장군","name"  :"기장병원","addr"  :"부산광역시 기장군 기장읍 대청로72번길 6","latitude"  :"35.2358805","longitude"  :"129.216446","opertimew"  :"00:00 ~ 24:00","opertimet"  :"00:00 ~ 24:00","opertimes"  :"00:00 ~ 24:00","tel"  :"051-723-0171\r"},{"id"  :"79","date"  :"2021년 07월 07일 21시","able"  :"○","sido"  :"부산","sigungu"  :"동래구","name"  :"동래구보건소","addr"  :"부산 동래구 명륜2동 702-54번지 ","latitude"  :"35.2114121","longitude"  :"129.0798725","opertimew"  :"09:00 ~ 18:00","opertimet"  :"09:00 ~ 18:00","opertimes"  :"09:00 ~ 14:00","tel"  :"051-555-4000\r"},{"id"  :"80","date"  :"2021년 07월 07일 21시","able"  :"○","sido"  :"부산","sigungu"  :"동래구","name"  :"대동병원","addr"  :"동래구 충렬대로187","latitude"  :"35.2045213","longitude"  :"129.0802502","opertimew"  :"09:00 ~ 17:00","opertimet"  :"09:00 ~ 12:00","opertimes"  :"미운영","tel"  :"051-554-1233\r"},{"id"  :"81","date"  :"2021년 07월 07일 21시","able"  :"○","sido"  :"부산","sigungu"  :"동래구","name"  :"봉생병원","addr"  :"부산광역시 동래구 안연로109번길 27","latitude"  :"35.1969082","longitude"  :"129.0961081","opertimew"  :"09:00 ~ 16:30","opertimet"  :"미운영","opertimes"  :"미운영","tel"  :"051-520-5510\r"},{"id"  :"82","date"  :"2021년 07월 07일 21시","able"  :"○","sido"  :"부산","sigungu"  :"동래구","name"  :"광혜병원","addr"  :"부산광역시 동래구 충렬대로 96","latitude"  :"35.206832","longitude"  :"129.0710667","opertimew"  :"13:30 ~ 16:00","opertimet"  :"미운영","opertimes"  :"미운영","tel"  :"051-503-2111\r"},{"id"  :"83","date"  :"2021년 07월 07일 21시","able"  :"○","sido"  :"부산","sigungu"  :"남구","name"  :"부산남구보건소","addr"  :"부산 남구 못골로 23","latitude"  :"35.1360966","longitude"  :"129.0849714","opertimew"  :"09:00 ~ 18:00","opertimet"  :"09:00 ~ 18:00","opertimes"  :"09:00 ~ 14:00","tel"  :"051-607-6460\r"},{"id"  :"84","date"  :"2021년 07월 07일 21시","able"  :"○","sido"  :"부산","sigungu"  :"남구","name"  :"부산성모병원","addr"  :"부산시 남구 용호로 232번길 25-14","latitude"  :"35.110167","longitude"  :"129.1092","opertimew"  :"09:00 ~ 16:00","opertimet"  :"09:00 ~ 12:00","opertimes"  :"미운영","tel"  :"051-933-7119\r"},{"id"  :"85","date"  :"2021년 07월 07일 21시","able"  :"○","sido"  :"부산","sigungu"  :"동구","name"  :"부산동구보건소","addr"  :"부산 동구 수정동(수정제2동) 806-74 동구청 보건소","latitude"  :"35.129344","longitude"  :"129.0449072","opertimew"  :"09:00 ~ 18:00","opertimet"  :"09:00 ~ 18:00","opertimes"  :"09:00 ~ 14:00","tel"  :"051-440-6500\r"},{"id"  :"86","date"  :"2021년 07월 07일 21시","able"  :"○","sido"  :"부산","sigungu"  :"동구","name"  :"좋은문화병원","addr"  :"부산광역시 동구 범일로 119(범일동)","latitude"  :"35.1407228","longitude"  :"129.058962","opertimew"  :"09:00 ~ 17:00","opertimet"  :"09:00 ~ 12:00","opertimes"  :"미운영","tel"  :"051-644-2002\r"},{"id"  :"87","date"  :"2021년 07월 07일 21시","able"  :"○","sido"  :"부산","sigungu"  :"동구","name"  :"김원묵기념봉생병원","addr"  :"부산광역시 동구 중앙대로 401(좌천동)","latitude"  :"35.1350301","longitude"  :"129.0553946","opertimew"  :"09:00 ~ 12:00","opertimet"  :"09:00 ~ 12:00","opertimes"  :"미운영","tel"  :"051-664-4000\r"},{"id"  :"88","date"  :"2021년 07월 07일 21시","able"  :"○","sido"  :"부산","sigungu"  :"북구","name"  :"부산북구보건소","addr"  :"부산 북구 화명동 1531-4 ","latitude"  :"35.2392309","longitude"  :"129.0146965","opertimew"  :"09:00 ~ 18:00","opertimet"  :"09:00 ~ 18:00","opertimes"  :"09:00 ~ 14:00","tel"  :"051-309-4500\r"},{"id"  :"89","date"  :"2021년 07월 07일 21시","able"  :"○","sido"  :"부산","sigungu"  :"북구","name"  :"부민병원","addr"  :"부산 북구 만덕대로 59","latitude"  :"35.2119687","longitude"  :"129.0112391","opertimew"  :"09:00 ~ 17:00","opertimet"  :"09:00 ~ 13:00","opertimes"  :"미운영","tel"  :"051-330-3000\r"},{"id"  :"90","date"  :"2021년 07월 07일 21시","able"  :"○","sido"  :"부산","sigungu"  :"북구","name"  :"구포성심병원","addr"  :"부산 북구 낙동대로 1786(구포동) ","latitude"  :"35.2095944","longitude"  :"129.0045343","opertimew"  :"09:00 ~ 16:30","opertimet"  :"09:00 ~ 12:00","opertimes"  :"미운영","tel"  :"051-330-2001\r"},{"id"  :"91","date"  :"2021년 07월 07일 21시","able"  :"○","sido"  :"부산","sigungu"  :"서구","name"  :"부산서구보건소","addr"  :"부산 서구 부용동2가(부민동) 86 서구보건소 부민노인복지관","latitude"  :"35.1074509","longitude"  :"129.0180656","opertimew"  :"09:00 ~ 18:00","opertimet"  :"09:00 ~ 18:00","opertimes"  :"09:00 ~ 14:00","tel"  :"051-240-4891\r"},{"id"  :"92","date"  :"2021년 07월 07일 21시","able"  :"○","sido"  :"부산","sigungu"  :"서구","name"  :"부산대학교병원","addr"  :"구덕로 179","latitude"  :"35.100814","longitude"  :"129.0187289","opertimew"  :"09:00 ~ 18:00","opertimet"  :"미운영","opertimes"  :"미운영","tel"  :"051-240-7051\r"},{"id"  :"93","date"  :"2021년 07월 07일 21시","able"  :"○","sido"  :"부산","sigungu"  :"서구","name"  :"동아대학교병원","addr"  :"대신공원로 26","latitude"  :"35.120294","longitude"  :"129.0179994","opertimew"  :"08:00 ~ 16:50","opertimet"  :"미운영","opertimes"  :"미운영","tel"  :"051-240-5085\r"},{"id"  :"94","date"  :"2021년 07월 07일 21시","able"  :"○","sido"  :"부산","sigungu"  :"서구","name"  :"고신대학교복음병원","addr"  :"감천로 262","latitude"  :"35.0803993","longitude"  :"129.0159305","opertimew"  :"09:00 ~ 12:00","opertimet"  :"미운영","opertimes"  :"미운영","tel"  :"051-990-3233\r"},{"id"  :"95","date"  :"2021년 07월 07일 21시","able"  :"○","sido"  :"부산","sigungu"  :"서구","name"  :"삼육부산병원","addr"  :"대티로 170","latitude"  :"35.112519","longitude"  :"129.0112693","opertimew"  :"09:00 ~ 17:00","opertimet"  :"미운영","opertimes"  :"09:00 ~ 17:00","tel"  :"051-600-7575\r"},{"id"  :"96","date"  :"2021년 07월 07일 21시","able"  :"○","sido"  :"부산","sigungu"  :"중구","name"  :"부산중구보건소","addr"  :"부산 중구 대청동1가 중구청 중구로 120","latitude"  :"35.1061458","longitude"  :"129.032342","opertimew"  :"09:00 ~ 18:00","opertimet"  :"09:00 ~ 18:00","opertimes"  :"09:00 ~ 14:00","tel"  :"051-600-4741\r"},{"id"  :"97","date"  :"2021년 07월 07일 21시","able"  :"○","sido"  :"부산","sigungu"  :"중구","name"  :"메리놀병원","addr"  :"중구로 121","latitude"  :"35.1073029","longitude"  :"129.0323992","opertimew"  :"11:00 ~ 12:30","opertimet"  :"11:00 ~ 12:30","opertimes"  :"미운영","tel"  :"051-461-2331\r"},{"id"  :"98","date"  :"2021년 07월 07일 21시","able"  :"○","sido"  :"부산","sigungu"  :"부산진구","name"  :"부산진구보건소","addr"  :"부산 부산진구 범천동(범천제1동) 849-10 부산진보건소","latitude"  :"35.1463098","longitude"  :"129.0599791","opertimew"  :"09:00 ~ 18:00","opertimet"  :"09:00 ~ 18:00","opertimes"  :"09:00 ~ 14:00","tel"  :"051-645-4000\r"},{"id"  :"99","date"  :"2021년 07월 07일 21시","able"  :"○","sido"  :"부산","sigungu"  :"부산진구","name"  :"인제대학교부산백병원","addr"  :"복지로 75","latitude"  :"35.1462564","longitude"  :"129.0208401","opertimew"  :"09:00 ~ 16:00","opertimet"  :"미운영","opertimes"  :"미운영","tel"  :"051-890-8933\r"},{"id"  :"100","date"  :"2021년 07월 07일 21시","able"  :"○","sido"  :"부산","sigungu"  :"부산진구","name"  :"온종합병원","addr"  :"가야대로 721","latitude"  :"35.1578057","longitude"  :"129.0499681","opertimew"  :"11:00 ~ 16:00","opertimet"  :"11:00 ~ 12:00","opertimes"  :"미운영","tel"  :"051-607-0832\r"},{"id"  :"101","date"  :"2021년 07월 07일 21시","able"  :"○","sido"  :"부산","sigungu"  :"부산진구","name"  :"동의병원","addr"  :"양정로 62","latitude"  :"35.1704973","longitude"  :"129.0771742","opertimew"  :"08:30 ~ 17:00","opertimet"  :"08:30 ~ 12:00","opertimes"  :"미운영","tel"  :"051-850-8865\r"},{"id"  :"102","date"  :"2021년 07월 07일 21시","able"  :"○","sido"  :"부산","sigungu"  :"부산진구","name"  :"춘해병원","addr"  :"중앙대로 605","latitude"  :"35.1469735","longitude"  :"129.0583856","opertimew"  :"15:30 ~ 16:00","opertimet"  :"미운영","opertimes"  :"미운영","tel"  :"051-638-8000\r"},{"id"  :"103","date"  :"2021년 07월 07일 21시","able"  :"○","sido"  :"부산","sigungu"  :"사상구","name"  :"사상구보건소","addr"  :"부산 사상구 감전동 138-8","latitude"  :"35.1524223","longitude"  :"128.9915872","opertimew"  :"09:00 ~ 18:00","opertimet"  :"09:00 ~ 18:00","opertimes"  :"09:00 ~ 14:00","tel"  :"051-310-4791\r"},{"id"  :"104","date"  :"2021년 07월 07일 21시","able"  :"○","sido"  :"부산","sigungu"  :"사상구","name"  :"부산보훈병원","addr"  :"부산 사상구 백양대로 420 (주례동)","latitude"  :"35.1507988","longitude"  :"129.0027795","opertimew"  :"08:30 ~ 17:30","opertimet"  :"미운영","opertimes"  :"미운영","tel"  :"051-601-6000\r"},{"id"  :"105","date"  :"2021년 07월 07일 21시","able"  :"○","sido"  :"부산","sigungu"  :"사상구","name"  :"좋은삼선병원","addr"  :"부산 사상구 가야대로 326","latitude"  :"35.1501479","longitude"  :"129.0077859","opertimew"  :"09:00 ~ 16:00","opertimet"  :"09:00 ~ 12:00","opertimes"  :"미운영","tel"  :"051-310-0900\r"},{"id"  :"106","date"  :"2021년 07월 07일 21시","able"  :"○","sido"  :"부산","sigungu"  :"사하구","name"  :"사하구보건소","addr"  :"부산광역시 사하구 하신번영로127번길 2(신평동)","latitude"  :"35.0942105","longitude"  :"128.9594902","opertimew"  :"09:00 ~ 18:00","opertimet"  :"09:00 ~ 18:00","opertimes"  :"09:00 ~ 14:00","tel"  :"051-220-5745\r"},{"id"  :"107","date"  :"2021년 07월 07일 21시","able"  :"○","sido"  :"부산","sigungu"  :"수영구","name"  :"수영구보건소","addr"  :"부산 수영구 광안1동 661-1번지","latitude"  :"35.1625586","longitude"  :"129.1134858","opertimew"  :"09:00 ~ 18:00","opertimet"  :"09:00 ~ 18:00","opertimes"  :"09:00 ~ 14:00","tel"  :"051-752-4000\r"},{"id"  :"108","date"  :"2021년 07월 07일 21시","able"  :"○","sido"  :"부산","sigungu"  :"수영구","name"  :"좋은강안병원","addr"  :"부산 수영구 수영로 493","latitude"  :"35.1499639","longitude"  :"129.1104981","opertimew"  :"09:30 ~ 16:00","opertimet"  :"09:30 ~ 12:00","opertimes"  :"미운영","tel"  :"051-625-0900\r"},{"id"  :"109","date"  :"2021년 07월 07일 21시","able"  :"○","sido"  :"부산","sigungu"  :"수영구","name"  :"BHS한서병원","addr"  :"부산 수영구 수영로 615","latitude"  :"35.1608916","longitude"  :"129.1131305","opertimew"  :"09:00 ~ 15:30","opertimet"  :"미운영","opertimes"  :"미운영","tel"  :"051-756-0081\r"},{"id"  :"110","date"  :"2021년 07월 07일 21시","able"  :"○","sido"  :"부산","sigungu"  :"연제구","name"  :"연제구보건소","addr"  :"부산 연제구 연산2동 연제로 2(연산2동 1555)","latitude"  :"35.1764508","longitude"  :"129.0794122","opertimew"  :"9:0 ~ 18:0","opertimet"  :"9:0 ~ 18:0","opertimes"  :"9:0 ~ 14:0","tel"  :"051-665-4781\r"},{"id"  :"111","date"  :"2021년 07월 07일 21시","able"  :"○","sido"  :"부산","sigungu"  :"연제구","name"  :"부산광역시의료원","addr"  :"연제구 월드컵대로 359","latitude"  :"35.1873066","longitude"  :"129.0595584","opertimew"  :"08:30 ~ 17:30","opertimet"  :"08:30 ~ 17:30","opertimes"  :"08:30 ~ 17:30","tel"  :"051-607-2816\r"},{"id"  :"112","date"  :"2021년 07월 07일 21시","able"  :"○","sido"  :"부산","sigungu"  :"영도구","name"  :"영도구보건소","addr"  :"부산 영도구 청학동(청학제2동) 48-3, 영도구청 보건소동","latitude"  :"35.0912037","longitude"  :"129.0678947","opertimew"  :"09:00 ~ 18:00","opertimet"  :"09:00 ~ 18:00","opertimes"  :"09:00 ~ 14:00","tel"  :"051-416-4000\r"},{"id"  :"113","date"  :"2021년 07월 07일 21시","able"  :"○","sido"  :"부산","sigungu"  :"영도구","name"  :"영도병원","addr"  :"부산시 영도구 태종로 85","latitude"  :"35.0922458","longitude"  :"129.0405355","opertimew"  :"9:00 ~ 17:00","opertimet"  :"9:00 ~ 13:00","opertimes"  :"미운영","tel"  :"051-419-7873\r"},{"id"  :"114","date"  :"2021년 07월 07일 21시","able"  :"○","sido"  :"부산","sigungu"  :"영도구","name"  :"해동병원","addr"  :"부산시 영도구 태종로 133(봉래동 3가)","latitude"  :"35.0944702","longitude"  :"129.0443453","opertimew"  :"8:30 ~ 17:00","opertimet"  :"미운영","opertimes"  :"미운영","tel"  :"051-410-6682\r"},{"id"  :"115","date"  :"2021년 07월 07일 21시","able"  :"○","sido"  :"부산","sigungu"  :"해운대구","name"  :"해운대구보건소","addr"  :"부산 해운대구 좌2동 1339","latitude"  :"35.16407","longitude"  :"129.1788626","opertimew"  :"09:00 ~ 17:00","opertimet"  :"09:30 ~ 17:00","opertimes"  :"09:00 ~ 14:00","tel"  :"051-746-4000\r"},{"id"  :"116","date"  :"2021년 07월 07일 21시","able"  :"○","sido"  :"부산","sigungu"  :"해운대구","name"  :"해운대백병원","addr"  :"해운대로875","latitude"  :"35.1733441","longitude"  :"129.1822042","opertimew"  :"08:30 ~ 17:00","opertimet"  :"미운영","opertimes"  :"미운영","tel"  :"051-797-0100\r"},{"id"  :"117","date"  :"2021년 07월 07일 21시","able"  :"○","sido"  :"부산","sigungu"  :"해운대구","name"  :"해운대부민병원","addr"  :"해운대로584","latitude"  :"35.1613686","longitude"  :"129.1558441","opertimew"  :"09:00 ~ 17:00","opertimet"  :"미운영","opertimes"  :"미운영","tel"  :"051-602-8000\r"},{"id"  :"118","date"  :"2021년 07월 07일 21시","able"  :"○","sido"  :"대구","sigungu"  :"달서구","name"  :"달서구보건소","addr"  :"대구 달서구 월성동(월성2동) 281 달서구청","latitude"  :"35.8297339","longitude"  :"128.5326441","opertimew"  :"09:00 ~ 17:00","opertimet"  :"10:00 ~ 17:30","opertimes"  :"10:00 ~ 17:30","tel"  :"053-667-5751\r"},{"id"  :"119","date"  :"2021년 07월 07일 21시","able"  :"○","sido"  :"대구","sigungu"  :"달서구","name"  :"계명대학교 동산병원","addr"  :"대구 달서구 달구벌대로 1035","latitude"  :"35.8532044","longitude"  :"128.5203154","opertimew"  :"09:00 ~ 11:00","opertimet"  :"미운영","opertimes"  :"미운영","tel"  :"1577-6622\r"},{"id"  :"120","date"  :"2021년 07월 07일 21시","able"  :"○","sido"  :"대구","sigungu"  :"달서구","name"  :"삼일병원","addr"  :"대구 달서구 월배로 446","latitude"  :"35.8329469","longitude"  :"128.5544063","opertimew"  :"09:00 ~ 18:00","opertimet"  :"09:00 ~ 13:00","opertimes"  :"미운영","tel"  :"053-659-3100\r"},{"id"  :"121","date"  :"2021년 07월 07일 21시","able"  :"○","sido"  :"대구","sigungu"  :"달서구","name"  :"구병원","addr"  :"대구 달서구 감삼북길 141","latitude"  :"35.8506505","longitude"  :"128.5413994","opertimew"  :"09:00 ~ 17:30","opertimet"  :"09:00 ~ 13:00","opertimes"  :"미운영","tel"  :"053-560-9114\r"},{"id"  :"122","date"  :"2021년 07월 07일 21시","able"  :"○","sido"  :"대구","sigungu"  :"달서구","name"  :"세강병원","addr"  :"대구 달서구 구마로 220","latitude"  :"35.8366663","longitude"  :"128.5517369","opertimew"  :"09:00 ~ 17:00","opertimet"  :"09:00 ~ 13:00","opertimes"  :"미운영","tel"  :"053-215-6200\r"},{"id"  :"123","date"  :"2021년 07월 07일 21시","able"  :"○","sido"  :"대구","sigungu"  :"달서구","name"  :"W병원","addr"  :"대구 달서구 달구벌대로 1632","latitude"  :"35.8527263","longitude"  :"128.5450535","opertimew"  :"09:00 ~ 18:00","opertimet"  :"09:00 ~ 13:00","opertimes"  :"미운영","tel"  :"053-550-5000\r"},{"id"  :"124","date"  :"2021년 07월 07일 21시","able"  :"○","sido"  :"대구","sigungu"  :"달성군","name"  :"달성군 보건소","addr"  :"대구 달성군 현풍읍 하리 253-2 ","latitude"  :"35.6921268","longitude"  :"128.4447346","opertimew"  :"10:00 ~ 17:00","opertimet"  :"10:00 ~ 16:00","opertimes"  :"10:00 ~ 16:00","tel"  :"053-668-3333\r"},{"id"  :"125","date"  :"2021년 07월 07일 21시","able"  :"○","sido"  :"대구","sigungu"  :"남구","name"  :"대구광역시 남구보건소","addr"  :"대구 남구 대명2동 2003번지(영선길 34)","latitude"  :"35.8538832","longitude"  :"128.5915107","opertimew"  :"09:00 ~ 18:00","opertimet"  :"10:00 ~ 16:00","opertimes"  :"10:00 ~ 16:00","tel"  :"053-664-3601\r"},{"id"  :"126","date"  :"2021년 07월 07일 21시","able"  :"○","sido"  :"대구","sigungu"  :"남구","name"  :"영남대학교 병원","addr"  :"대구 남구 현충로 170","latitude"  :"35.8469571","longitude"  :"128.5827831","opertimew"  :"08:30 ~ 13:00","opertimet"  :"미운영","opertimes"  :"미운영","tel"  :"053-620-3177\r"},{"id"  :"127","date"  :"2021년 07월 07일 21시","able"  :"○","sido"  :"대구","sigungu"  :"남구","name"  :"대구가톨릭대학교 병원","addr"  :"대구 남구 두류공원로17길 33","latitude"  :"35.8438086","longitude"  :"128.5670053","opertimew"  :"08:30 ~ 17:30","opertimet"  :"미운영","opertimes"  :"미운영","tel"  :"053-650-4194\r"},{"id"  :"128","date"  :"2021년 07월 07일 21시","able"  :"○","sido"  :"대구","sigungu"  :"남구","name"  :"드림병원","addr"  :"대구 남구 대명로 153","latitude"  :"35.8396305","longitude"  :"128.574495","opertimew"  :"08:30 ~ 17:30","opertimet"  :"08:30 ~ 12:30","opertimes"  :"미운영","tel"  :"053-640-8800\r"},{"id"  :"129","date"  :"2021년 07월 07일 21시","able"  :"○","sido"  :"대구","sigungu"  :"동구","name"  :"대구광역시 동구보건소","addr"  :"대구 동구 검사동(동촌동) 1005-8 동구보건소","latitude"  :"35.8881015","longitude"  :"128.6512172","opertimew"  :"09:00 ~ 18:00","opertimet"  :"09:00 ~ 16:00","opertimes"  :"09:00 ~ 16:00","tel"  :"053-662-3225\r"},{"id"  :"130","date"  :"2021년 07월 07일 21시","able"  :"○","sido"  :"대구","sigungu"  :"동구","name"  :"대구파티마병원","addr"  :"대구광역시 동구 아양로 99","latitude"  :"35.8840357","longitude"  :"128.6238479","opertimew"  :"09:00 ~ 17:00","opertimet"  :"09:00 ~ 12:00","opertimes"  :"미운영","tel"  :"053-940-7098\r"},{"id"  :"131","date"  :"2021년 07월 07일 21시","able"  :"○","sido"  :"대구","sigungu"  :"북구","name"  :"대구광역시 북구보건소","addr"  :"대구광역시 북구 침산3동 521-2 (침산동 북구보건소)","latitude"  :"35.8917943","longitude"  :"128.5888897","opertimew"  :"11:00 ~ 17:00","opertimet"  :"11:00 ~ 16:00","opertimes"  :"11:00 ~ 16:00","tel"  :"053-665-2756\r"},{"id"  :"132","date"  :"2021년 07월 07일 21시","able"  :"○","sido"  :"대구","sigungu"  :"북구","name"  :"대구가톨릭대학교 칠곡가톨릭병원","addr"  :"대구 북구 칠곡중앙대로 440","latitude"  :"35.9349066","longitude"  :"128.5492967","opertimew"  :"09:00 ~ 17:00","opertimet"  :"09:00 ~ 12:00","opertimes"  :"미운영","tel"  :"053-320-2500\r"},{"id"  :"133","date"  :"2021년 07월 07일 21시","able"  :"○","sido"  :"대구","sigungu"  :"서구","name"  :"대구광역시 서구보건소","addr"  :"대구 서구 평리3동 1230-9(국채보상로257)","latitude"  :"35.8687857","longitude"  :"128.5321856","opertimew"  :"10:00 ~ 17:00","opertimet"  :"10:00 ~ 16:00","opertimes"  :"10:00 ~ 16:00","tel"  :"053-663-3176, 3178\r"},{"id"  :"134","date"  :"2021년 07월 07일 21시","able"  :"○","sido"  :"대구","sigungu"  :"서구","name"  :"대구의료원","addr"  :"대구 서구 평리로 157","latitude"  :"35.8596025","longitude"  :"128.5405922","opertimew"  :"00:00 ~ 00:00","opertimet"  :"00:00 ~ 00:00","opertimes"  :"00:00 ~ 00:00","tel"  :"053-560-7575\r"},{"id"  :"135","date"  :"2021년 07월 07일 21시","able"  :"○","sido"  :"대구","sigungu"  :"중구","name"  :"대구광역시 중구보건소","addr"  :"대구 중구 태평로3가(성내3동) 174-1 중구보건소","latitude"  :"35.8778703","longitude"  :"128.583387","opertimew"  :"09:30 ~ 18:00","opertimet"  :"09:30 ~ 14:00","opertimes"  :"09:30 ~ 14:00","tel"  :"053-661-3121\r"},{"id"  :"136","date"  :"2021년 07월 07일 21시","able"  :"○","sido"  :"대구","sigungu"  :"중구","name"  :"경북대학교병원","addr"  :"대구 중구 동덕로 130 경북대학교병원","latitude"  :"35.865942","longitude"  :"128.6051356","opertimew"  :"08:30 ~ 17:30","opertimet"  :"미운영","opertimes"  :"미운영","tel"  :"053-200-4355\r"},{"id"  :"137","date"  :"2021년 07월 07일 21시","able"  :"○","sido"  :"대구","sigungu"  :"수성구","name"  :"수성구보건소","addr"  :"대구 수성구 중동 266-5(수성로213) ","latitude"  :"35.8447846","longitude"  :"128.6122124","opertimew"  :"09:30 ~ 17:30","opertimet"  :"10:00 ~ 16:00","opertimes"  :"10:00 ~ 16:00","tel"  :"053-666-3266\r"},{"id"  :"138","date"  :"2021년 07월 07일 21시","able"  :"○","sido"  :"인천","sigungu"  :"강화군","name"  :"강화군보건소","addr"  :"인천 강화군 강화읍 남산리 324-1 강화군보건소","latitude"  :"37.7370885","longitude"  :"126.4852352","opertimew"  :"09:00 ~ 18:00","opertimet"  :"09:00 ~ 13:00","opertimes"  :"09:00 ~ 13:00","tel"  :"032-930-4007\r"},{"id"  :"139","date"  :"2021년 07월 07일 21시","able"  :"○","sido"  :"인천","sigungu"  :"강화군","name"  :"비에스종합병원","addr"  :"충렬사로 31","latitude"  :"37.73588788","longitude"  :"126.486102","opertimew"  :"00:00 ~ 24:00","opertimet"  :"00:00 ~ 24:00","opertimes"  :"00:00 ~ 24:00","tel"  :"032-290-0241\r"},{"id"  :"140","date"  :"2021년 07월 07일 21시","able"  :"○","sido"  :"인천","sigungu"  :"계양구","name"  :"계양구보건소","addr"  :"인천 계양구 계산동 1079-1 ","latitude"  :"37.5372039","longitude"  :"126.7378395","opertimew"  :"09:00 ~ 18:00","opertimet"  :"09:00 ~ 13:00","opertimes"  :"09:00 ~ 13:00","tel"  :"032-430-7821\r"},{"id"  :"141","date"  :"2021년 07월 07일 21시","able"  :"○","sido"  :"인천","sigungu"  :"계양구","name"  :"인성의료재단 한림병원","addr"  :"계양구 장재로 722","latitude"  :"37.5321972","longitude"  :"126.7343305","opertimew"  :"08:30 ~ 17:00","opertimet"  :"08:30 ~ 12:00","opertimes"  :"미운영","tel"  :"032-540-9118~9\r"},{"id"  :"142","date"  :"2021년 07월 07일 21시","able"  :"○","sido"  :"인천","sigungu"  :"계양구","name"  :"인천세종병원","addr"  :"계양구 계양문화로 20","latitude"  :"37.5324558","longitude"  :"126.7371651","opertimew"  :"09:30 ~ 16:30","opertimet"  :"09:30 ~ 11:30","opertimes"  :"미운영","tel"  :"032-240-8000\r"},{"id"  :"143","date"  :"2021년 07월 07일 21시","able"  :"○","sido"  :"인천","sigungu"  :"남동구","name"  :"인천광역시남동구보건소","addr"  :"인천광역시 남동구 소래로 633, 남동구보건소","latitude"  :"37.4478227","longitude"  :"126.7304137","opertimew"  :"09:00 ~ 18:00","opertimet"  :"09:00 ~ 13:00","opertimes"  :"09:00 ~ 13:00","tel"  :"032-453-8570\r"},{"id"  :"144","date"  :"2021년 07월 07일 21시","able"  :"○","sido"  :"인천","sigungu"  :"남동구","name"  :"길의료재단 길병원","addr"  :"인천광역시 남동구 남동대로 744번길 21","latitude"  :"37.4247641","longitude"  :"126.7031818","opertimew"  :"08:00 ~ 17:00","opertimet"  :"08:00 ~ 12:00","opertimes"  :"미운영","tel"  :"032-460-3124\r"},{"id"  :"145","date"  :"2021년 07월 07일 21시","able"  :"○","sido"  :"인천","sigungu"  :"부평구","name"  :"인천광역시부평구보건소","addr"  :"인천광역시 부평구 부흥로 291 부평구보건소","latitude"  :"37.4987886","longitude"  :"126.7242462","opertimew"  :"09:00 ~ 18:00","opertimet"  :"09:00 ~ 13:00","opertimes"  :"09:00 ~ 13:00","tel"  :"032-509-8200\r"},{"id"  :"146","date"  :"2021년 07월 07일 21시","able"  :"○","sido"  :"인천","sigungu"  :"부평구","name"  :"부평세림병원","addr"  :"인천광역시 부평구 부평대로 175","latitude"  :"37.5067625","longitude"  :"126.7200557","opertimew"  :"8:30 ~ 17:00","opertimet"  :"8:30 ~ 12:00","opertimes"  :"미운영","tel"  :"032-509-5764\r"},{"id"  :"147","date"  :"2021년 07월 07일 21시","able"  :"○","sido"  :"인천","sigungu"  :"부평구","name"  :"가톨릭대학교 인천성모병원","addr"  :"인천광역시 부평구 동수로 56","latitude"  :"37.4844074","longitude"  :"126.7249147","opertimew"  :"8:30 ~ 17:00","opertimet"  :"8:30 ~ 12:00","opertimes"  :"미운영","tel"  :"032-280-6915\r"},{"id"  :"148","date"  :"2021년 07월 07일 21시","able"  :"○","sido"  :"인천","sigungu"  :"부평구","name"  :"근로복지공단 인천병원","addr"  :"인천광역시 부평구 무네미로 446","latitude"  :"37.4761818","longitude"  :"126.7539528","opertimew"  :"8:30 ~ 17:00","opertimet"  :"미운영","opertimes"  :"미운영","tel"  :"032-500-0229\r"},{"id"  :"149","date"  :"2021년 07월 07일 21시","able"  :"○","sido"  :"인천","sigungu"  :"연수구","name"  :"연수구보건소","addr"  :"인천 연수구 청학동  465-2(함박뫼로 13호)","latitude"  :"37.4190771","longitude"  :"126.6711606","opertimew"  :"09:00 ~ 18:00","opertimet"  :"09:00 ~ 13:00","opertimes"  :"09:00 ~ 13:00","tel"  :"032-749-8176\r"},{"id"  :"150","date"  :"2021년 07월 07일 21시","able"  :"○","sido"  :"인천","sigungu"  :"연수구","name"  :"나사렛국제병원","addr"  :"인천광역시 연수구 먼우금로 98 (동춘동, 나사렛국제병원)","latitude"  :"37.4080241","longitude"  :"126.6705124","opertimew"  :"08:30 ~ 17:30","opertimet"  :"08:30 ~ 12:30","opertimes"  :"미운영","tel"  :"032-899-9999\r"},{"id"  :"151","date"  :"2021년 07월 07일 21시","able"  :"○","sido"  :"인천","sigungu"  :"연수구","name"  :"인천적십자병원","addr"  :"인천광역시 연수구 원인재로 263 (연수동, 인천적십자병원)","latitude"  :"37.4190732","longitude"  :"126.6893351","opertimew"  :"08:30 ~ 17:00","opertimet"  :"미운영","opertimes"  :"미운영","tel"  :"032-899-4000\r"},{"id"  :"152","date"  :"2021년 07월 07일 21시","able"  :"○","sido"  :"인천","sigungu"  :"옹진군","name"  :"옹진군보건소","addr"  :"인천광역시 미추홀구 매소홀로120","latitude"  :"37.4465089","longitude"  :"126.6367441","opertimew"  :"09:00 ~ 20:50","opertimet"  :"09:00 ~ 17:50","opertimes"  :"09:00 ~ 17:50","tel"  :"032-899-3130\r"},{"id"  :"153","date"  :"2021년 07월 07일 21시","able"  :"○","sido"  :"인천","sigungu"  :"옹진군","name"  :"백령병원","addr"  :"인천광역시 백령로 233","latitude"  :"37.9625097","longitude"  :"124.7005611","opertimew"  :"00:00 ~ 24:00","opertimet"  :"00:00 ~ 24:00","opertimes"  :"00:00 ~ 24:00","tel"  :"032-836-1731\r"},{"id"  :"154","date"  :"2021년 07월 07일 21시","able"  :"○","sido"  :"인천","sigungu"  :"미추홀구","name"  :"인천광역시미추홀구보건소","addr"  :"인천 미추홀구 도화동(도화1동) 357-1 미추홀구보건소","latitude"  :"37.461015","longitude"  :"126.677363","opertimew"  :"09:00 ~ 18:00","opertimet"  :"09:00 ~ 13:00","opertimes"  :"09:00 ~ 13:00","tel"  :"032-880-5333~4\r"},{"id"  :"155","date"  :"2021년 07월 07일 21시","able"  :"○","sido"  :"인천","sigungu"  :"미추홀구","name"  :"인천사랑병원","addr"  :"미추홀대로 726","latitude"  :"37.4620945","longitude"  :"126.6807682","opertimew"  :"08:30 ~ 17:30","opertimet"  :"08:30 ~ 12:30","opertimes"  :"미운영","tel"  :"032-457-2000\r"},{"id"  :"156","date"  :"2021년 07월 07일 21시","able"  :"○","sido"  :"인천","sigungu"  :"미추홀구","name"  :"현대유비스병원","addr"  :"독배로503","latitude"  :"37.4614899","longitude"  :"126.6429794","opertimew"  :"08:30 ~ 17:30","opertimet"  :"08:30 ~ 12:30","opertimes"  :"미운영","tel"  :"032-890-5509\r"},{"id"  :"157","date"  :"2021년 07월 07일 21시","able"  :"○","sido"  :"인천","sigungu"  :"동구","name"  :"인천광역시동구보건소","addr"  :"인천 동구 만석동 18-3 인천광역시동구보건소, 1동 ","latitude"  :"37.4830666","longitude"  :"126.6258951","opertimew"  :"09:00 ~ 18:00","opertimet"  :"09:00 ~ 13:00","opertimes"  :"09:00 ~ 13:00","tel"  :"032-770-6317\r"},{"id"  :"158","date"  :"2021년 07월 07일 21시","able"  :"○","sido"  :"인천","sigungu"  :"동구","name"  :"인천백병원","addr"  :"인천 동구 샛골로214(송림동)","latitude"  :"37.4765342","longitude"  :"126.644187","opertimew"  :"00:00 ~ 24:00","opertimet"  :"00:00 ~ 24:00","opertimes"  :"00:00 ~ 24:00","tel"  :"1800-7070\r"},{"id"  :"159","date"  :"2021년 07월 07일 21시","able"  :"○","sido"  :"인천","sigungu"  :"동구","name"  :"인천광역시의료원","addr"  :"인천 동구 방축로217(송림동)","latitude"  :"37.484578","longitude"  :"126.6547403","opertimew"  :"00:00 ~ 24:00","opertimet"  :"00:00 ~ 24:00","opertimes"  :"00:00 ~ 24:00","tel"  :"032-580-6119\r"},{"id"  :"160","date"  :"2021년 07월 07일 21시","able"  :"○","sido"  :"인천","sigungu"  :"서구","name"  :"인천광역시서구보건소","addr"  :"인천 서구 심곡동(연희동) 246-1 서구보건소 39","latitude"  :"37.5443601","longitude"  :"126.6739434","opertimew"  :"09:00 ~ 18:00","opertimet"  :"09:00 ~ 13:00","opertimes"  :"09:00 ~ 13:00","tel"  :"032-718-0400\r"},{"id"  :"161","date"  :"2021년 07월 07일 21시","able"  :"○","sido"  :"인천","sigungu"  :"서구","name"  :"국제성모병원","addr"  :"서구 심곡로100번길 23","latitude"  :"37.5414965","longitude"  :"126.6835186","opertimew"  :"0:0 ~ 24:00","opertimet"  :"0:0 ~ 24:00","opertimes"  :"0:0 ~ 24:0","tel"  :"032-290-2781\r"},{"id"  :"162","date"  :"2021년 07월 07일 21시","able"  :"○","sido"  :"인천","sigungu"  :"서구","name"  :"검단탑병원","addr"  :"서구 청마로19번길 5","latitude"  :"37.5925263","longitude"  :"126.6709448","opertimew"  :"0:0 ~ 24:00","opertimet"  :"0:0 ~ 24:00","opertimes"  :"0:0 ~ 24:0","tel"  :"032-590-0119\r"},{"id"  :"163","date"  :"2021년 07월 07일 21시","able"  :"○","sido"  :"인천","sigungu"  :"서구","name"  :"나은병원","addr"  :"서구 원적로 23","latitude"  :"37.4890123","longitude"  :"126.6797793","opertimew"  :"0:0 ~ 24:00","opertimet"  :"0:0 ~ 24:00","opertimes"  :"0:0 ~ 24:0","tel"  :"1661-0099\r"},{"id"  :"164","date"  :"2021년 07월 07일 21시","able"  :"○","sido"  :"인천","sigungu"  :"서구","name"  :"뉴 성민병원","addr"  :"서구 신석로 70","latitude"  :"37.509763","longitude"  :"126.669808","opertimew"  :"13:30 ~ 17:00","opertimet"  :"미운영","opertimes"  :"미운영","tel"  :"032-726-1000\r"},{"id"  :"165","date"  :"2021년 07월 07일 21시","able"  :"○","sido"  :"인천","sigungu"  :"서구","name"  :"온누리병원","addr"  :"서구 완정로 199","latitude"  :"37.6027544","longitude"  :"126.654316","opertimew"  :"0:0 ~ 24:00","opertimet"  :"0:0 ~ 24:00","opertimes"  :"0:0 ~ 24:0","tel"  :"032-568-9111\r"},{"id"  :"166","date"  :"2021년 07월 07일 21시","able"  :"○","sido"  :"인천","sigungu"  :"중구","name"  :"인천광역시중구보건소","addr"  :"인천 중구 전동 2-1","latitude"  :"37.4772085","longitude"  :"126.6290335","opertimew"  :"09:00 ~ 18:00","opertimet"  :"09:00 ~ 13:00","opertimes"  :"09:00 ~ 13:00","tel"  :"032-760-6050\r"},{"id"  :"167","date"  :"2021년 07월 07일 21시","able"  :"○","sido"  :"인천","sigungu"  :"중구","name"  :"인하대병원","addr"  :"인천 중구 인항로27","latitude"  :"37.458619","longitude"  :"126.6340376","opertimew"  :"00:00 ~ 24:00","opertimet"  :"00:00 ~ 24:00","opertimes"  :"00:00 ~ 24:00","tel"  :"032-890-2114\r"},{"id"  :"168","date"  :"2021년 07월 07일 21시","able"  :"○","sido"  :"인천","sigungu"  :"중구","name"  :"인천기독병원","addr"  :"인천 중구 답동로 30번길 10","latitude"  :"37.4712731","longitude"  :"126.632106","opertimew"  :"08:30 ~ 17:30","opertimet"  :"미운영","opertimes"  :"미운영","tel"  :"032-270-8300\r"},{"id"  :"169","date"  :"2021년 07월 07일 21시","able"  :"○","sido"  :"인천","sigungu"  :"중구","name"  :"영종 국제도시보건과","addr"  :"인천 중구 운남서로 100-1","latitude"  :"37.4938542","longitude"  :"126.5313043","opertimew"  :"09:00 ~ 18:00","opertimet"  :"09:00 ~ 13:00","opertimes"  :"미운영","tel"  :"032-760-6885\r"},{"id"  :"170","date"  :"2021년 07월 07일 21시","able"  :"○","sido"  :"광주","sigungu"  :"광산구","name"  :"광산구보건소","addr"  :"광주광역시 광산구 송정동 833-8 (,송정동)","latitude"  :"35.1397215","longitude"  :"126.7937002","opertimew"  :"09:30 ~ 17:30","opertimet"  :"09:30 ~ 17:30","opertimes"  :"09:30 ~ 17:30","tel"  :"062-960-6868\r"},{"id"  :"171","date"  :"2021년 07월 07일 21시","able"  :"○","sido"  :"광주","sigungu"  :"광산구","name"  :"첨단종합병원","addr"  :"광주광역시 광산구 첨단중앙로 170번길 59","latitude"  :"35.2209175","longitude"  :"126.845173","opertimew"  :"10:00 ~ 14:00","opertimet"  :"미운영","opertimes"  :"미운영","tel"  :"062-601-8119\r"},{"id"  :"172","date"  :"2021년 07월 07일 21시","able"  :"○","sido"  :"광주","sigungu"  :"광산구","name"  :"KS병원","addr"  :"광산구 왕버들로220","latitude"  :"35.1978963","longitude"  :"126.8332013","opertimew"  :"09:00 ~ 17:00","opertimet"  :"09:00 ~ 13:00","opertimes"  :"미운영","tel"  :"062-975-9782\r"},{"id"  :"173","date"  :"2021년 07월 07일 21시","able"  :"○","sido"  :"광주","sigungu"  :"남구","name"  :"광주남구보건소","addr"  :"광주광역시 남구 봉선로 20-1","latitude"  :"35.1313302","longitude"  :"126.9020351","opertimew"  :"09:00 ~ 18:00","opertimet"  :"09:00 ~ 18:00","opertimes"  :"09:00 ~ 18:00","tel"  :"062-671-4339\r"},{"id"  :"174","date"  :"2021년 07월 07일 21시","able"  :"○","sido"  :"광주","sigungu"  :"남구","name"  :"광주기독병원","addr"  :"광주광역시 남구 양림로 37","latitude"  :"35.1366727","longitude"  :"126.912122","opertimew"  :"09:00 ~ 16:30","opertimet"  :"미운영","opertimes"  :"미운영","tel"  :"062-650-5272\r"},{"id"  :"175","date"  :"2021년 07월 07일 21시","able"  :"○","sido"  :"광주","sigungu"  :"동구","name"  :"광주동구보건소","addr"  :"광주 동구 서석동 31번지 ","latitude"  :"35.1458272","longitude"  :"126.9233266","opertimew"  :"09:00 ~ 18:00","opertimet"  :"09:00 ~ 18:00","opertimes"  :"09:00 ~ 18:00","tel"  :"062-608-3424\r"},{"id"  :"176","date"  :"2021년 07월 07일 21시","able"  :"○","sido"  :"광주","sigungu"  :"동구","name"  :"조선대학교병원","addr"  :"광주광역시 동구필문대로 365","latitude"  :"35.1389928","longitude"  :"126.9262664","opertimew"  :"09:00 ~ 17:00","opertimet"  :"미운영","opertimes"  :"미운영","tel"  :"062-220-3996\r"},{"id"  :"177","date"  :"2021년 07월 07일 21시","able"  :"○","sido"  :"광주","sigungu"  :"북구","name"  :"광주북구보건소","addr"  :"광주 북구 중흥2동 359번지","latitude"  :"35.1733152","longitude"  :"126.9121644","opertimew"  :"09:00 ~ 18:00","opertimet"  :"09:00 ~ 18:00","opertimes"  :"09:00 ~ 18:00","tel"  :"062-410-8112\r"},{"id"  :"178","date"  :"2021년 07월 07일 21시","able"  :"○","sido"  :"광주","sigungu"  :"북구","name"  :"광주일곡병원","addr"  :"광주 북구 양일로 309","latitude"  :"35.2028356","longitude"  :"126.8976362","opertimew"  :"09:00 ~ 09:00","opertimet"  :"09:00 ~ 09:00","opertimes"  :"09:00 ~ 09:00","tel"  :"062-608-7119\r"},{"id"  :"179","date"  :"2021년 07월 07일 21시","able"  :"○","sido"  :"광주","sigungu"  :"서구","name"  :"광주서구보건소","addr"  :"광주 서구 농성동(농성1동) 299 서구보건소","latitude"  :"35.1522914","longitude"  :"126.8898905","opertimew"  :"09:00 ~ 18:00","opertimet"  :"09:00 ~ 18:00","opertimes"  :"09:00 ~ 18:00","tel"  :"062-350-4158,4130\r"},{"id"  :"180","date"  :"2021년 07월 07일 21시","able"  :"○","sido"  :"광주","sigungu"  :"서구","name"  :"서광병원","addr"  :"금화로 59번길 6 (금호동)","latitude"  :"35.1326041","longitude"  :"126.8554899","opertimew"  :"09:00 ~ 17:00","opertimet"  :"09:00 ~ 12:00","opertimes"  :"미운영","tel"  :"062-600-8119,8161\r"},{"id"  :"181","date"  :"2021년 07월 07일 21시","able"  :"○","sido"  :"대전","sigungu"  :"대덕구","name"  :"대덕구보건소","addr"  :"대전 대덕구 석봉동 318-1 대덕구보건소","latitude"  :"36.4448023","longitude"  :"127.4260198","opertimew"  :"09:00 ~ 16:30","opertimet"  :"09:00 ~ 12:00","opertimes"  :"09:00 ~ 12:00","tel"  :"042-608-4451~4455\r"},{"id"  :"182","date"  :"2021년 07월 07일 21시","able"  :"○","sido"  :"대전","sigungu"  :"대덕구","name"  :"근로복지공단 대전병원","addr"  :"대덕구 계족로 637","latitude"  :"36.3682859","longitude"  :"127.4287207","opertimew"  :"08:30 ~ 12:30","opertimet"  :"미운영","opertimes"  :"미운영","tel"  :"042-670-5377\r"},{"id"  :"183","date"  :"2021년 07월 07일 21시","able"  :"○","sido"  :"대전","sigungu"  :"대덕구","name"  :"대전보훈병원","addr"  :"대덕구 대청로 82번길 147","latitude"  :"36.4473433","longitude"  :"127.4393525","opertimew"  :"08:30 ~ 17:00","opertimet"  :"미운영","opertimes"  :"미운영","tel"  :"042-939-0118,0100\r"},{"id"  :"184","date"  :"2021년 07월 07일 21시","able"  :"○","sido"  :"대전","sigungu"  :"동구","name"  :"대전광역시 동구보건소","addr"  :"대전광역시 동구 가오동 425","latitude"  :"36.3118501","longitude"  :"127.4548274","opertimew"  :"09:00 ~ 16:00","opertimet"  :"09:00 ~ 12:00","opertimes"  :"09:00 ~ 12:00","tel"  :"042-251-6305\r"},{"id"  :"185","date"  :"2021년 07월 07일 21시","able"  :"○","sido"  :"대전","sigungu"  :"동구","name"  :"대전한국병원","addr"  :"대전광역시 동구 동서대로 1672 ","latitude"  :"36.3481517","longitude"  :"127.4358287","opertimew"  :"09:00 ~ 15:00","opertimet"  :"09:00 ~ 11:00","opertimes"  :"09:00 ~ 11:00","tel"  :"042-606-1500\r"},{"id"  :"186","date"  :"2021년 07월 07일 21시","able"  :"○","sido"  :"대전","sigungu"  :"서구","name"  :"대전광역시 서구보건소","addr"  :"대전 서구 만년동 340번지","latitude"  :"36.3670619","longitude"  :"127.3811053","opertimew"  :"10:00 ~ 16:00","opertimet"  :"09:00 ~ 12:00","opertimes"  :"09:00 ~ 12:00","tel"  :"042-288-4520\r"},{"id"  :"187","date"  :"2021년 07월 07일 21시","able"  :"○","sido"  :"대전","sigungu"  :"서구","name"  :"을지대학교병원","addr"  :"대전 서구 둔산서로 95","latitude"  :"36.355327","longitude"  :"127.3820082","opertimew"  :"08:30 ~ 17:30","opertimet"  :"미운영","opertimes"  :"미운영","tel"  :"1899-0001\r"},{"id"  :"188","date"  :"2021년 07월 07일 21시","able"  :"○","sido"  :"대전","sigungu"  :"서구","name"  :"건양대학교병원","addr"  :"대전 서구 관저동로 158","latitude"  :"36.2992196","longitude"  :"127.3403195","opertimew"  :"08:30 ~ 17:30","opertimet"  :"08:30 ~ 12:30","opertimes"  :"미운영","tel"  :"1577-3330\r"},{"id"  :"189","date"  :"2021년 07월 07일 21시","able"  :"○","sido"  :"대전","sigungu"  :"중구","name"  :"대전광역시 중구보건소","addr"  :"대전 중구 문화2동 785 중구보건소 ","latitude"  :"36.3079929","longitude"  :"127.3950816","opertimew"  :"09:30 ~ 16:30","opertimet"  :"09:30 ~ 12:00","opertimes"  :"09:30 ~ 12:00","tel"  :"042-288-8043\r"},{"id"  :"190","date"  :"2021년 07월 07일 21시","able"  :"○","sido"  :"대전","sigungu"  :"중구","name"  :"대전성모병원","addr"  :"대전광역시 중구 대흥로 64 가톨릭대학교대전성모병원","latitude"  :"36.3227797","longitude"  :"127.4202454","opertimew"  :"08:30 ~ 12:00","opertimet"  :"미운영","opertimes"  :"미운영","tel"  :"042-220-9114\r"},{"id"  :"191","date"  :"2021년 07월 07일 21시","able"  :"○","sido"  :"대전","sigungu"  :"중구","name"  :"대전선병원","addr"  :"대전광역시 중구 목중로 29 대전선병원","latitude"  :"36.3360252","longitude"  :"127.4102951","opertimew"  :"08:30 ~ 17:30","opertimet"  :"미운영","opertimes"  :"미운영","tel"  :"042-220-8166\r"},{"id"  :"192","date"  :"2021년 07월 07일 21시","able"  :"○","sido"  :"대전","sigungu"  :"중구","name"  :"충남대학교병원","addr"  :"대전 중구 문화로 282 충남대학교병원","latitude"  :"36.3167707","longitude"  :"127.4162265","opertimew"  :"09:00 ~ 17:30","opertimet"  :"미운영","opertimes"  :"미운영","tel"  :"042-280-6648\r"},{"id"  :"193","date"  :"2021년 07월 07일 21시","able"  :"○","sido"  :"대전","sigungu"  :"유성구","name"  :"대전광역시 유성구보건소","addr"  :"대전 유성구 노은동 270 월드컵보조경기장 P2주차장","latitude"  :"36.3652954","longitude"  :"127.324859","opertimew"  :"09:30 ~ 16:30","opertimet"  :"09:30 ~ 11:30","opertimes"  :"09:30 ~ 11:30","tel"  :"042-611-5000\r"},{"id"  :"194","date"  :"2021년 07월 07일 21시","able"  :"○","sido"  :"대전","sigungu"  :"유성구","name"  :"유성선병원","addr"  :"북유성대로93","latitude"  :"36.37518","longitude"  :"127.3248025","opertimew"  :"09:00 ~ 12:00","opertimet"  :"미운영","opertimes"  :"미운영","tel"  :"042-609-1120\r"},{"id"  :"195","date"  :"2021년 07월 07일 21시","able"  :"○","sido"  :"울산","sigungu"  :"남구","name"  :"울산남구보건소","addr"  :"울산광역시 남구 삼산동 1538-4번지 울산남구보건소 (삼산동)","latitude"  :"35.545405","longitude"  :"129.3362736","opertimew"  :"09:00 ~ 16:00","opertimet"  :"미운영","opertimes"  :"미운영","tel"  :"052-226-2805\r"},{"id"  :"196","date"  :"2021년 07월 07일 21시","able"  :"○","sido"  :"울산","sigungu"  :"남구","name"  :"의)정안의료재단 중앙병원","addr"  :"울산 남구 문수로 480번길 10","latitude"  :"35.5315233","longitude"  :"129.3052032","opertimew"  :"10:00 ~ 17:00","opertimet"  :"10:00 ~ 12:00","opertimes"  :"미운영","tel"  :"052-226-1303\r"},{"id"  :"197","date"  :"2021년 07월 07일 21시","able"  :"○","sido"  :"울산","sigungu"  :"남구","name"  :"울산병원","addr"  :"울산 남구 월평로 171번길 13","latitude"  :"35.546209","longitude"  :"129.3230784","opertimew"  :"09:00 ~ 17:00","opertimet"  :"09:00 ~ 12:00","opertimes"  :"미운영","tel"  :"052-259-5260\r"},{"id"  :"198","date"  :"2021년 07월 07일 21시","able"  :"○","sido"  :"울산","sigungu"  :"남구","name"  :"좋은삼정병원","addr"  :"울산 남구 북부순환도로 51","latitude"  :"35.5528284","longitude"  :"129.2690588","opertimew"  :"10:00 ~ 16:30","opertimet"  :"미운영","opertimes"  :"미운영","tel"  :"052-220-7592\r"},{"id"  :"199","date"  :"2021년 07월 07일 21시","able"  :"○","sido"  :"울산","sigungu"  :"동구","name"  :"울산동구보건소","addr"  :"울산 동구 화정동 222","latitude"  :"35.5050862","longitude"  :"129.4166463","opertimew"  :"09:00 ~ 16:00","opertimet"  :"미운영","opertimes"  :"미운영","tel"  :"052-209-4080\r"},{"id"  :"200","date"  :"2021년 07월 07일 21시","able"  :"○","sido"  :"울산","sigungu"  :"동구","name"  :"울산대학교병원","addr"  :"울산 동구 방어진순환도로 877","latitude"  :"35.5200568","longitude"  :"129.4288608","opertimew"  :"08:30 ~ 17:30","opertimet"  :"미운영","opertimes"  :"미운영","tel"  :"052-250-7410\r"},{"id"  :"201","date"  :"2021년 07월 07일 21시","able"  :"○","sido"  :"울산","sigungu"  :"북구","name"  :"울산북구보건소","addr"  :"울산 북구 연암동(효문동) 1082 보건소","latitude"  :"35.583594","longitude"  :"129.3607142","opertimew"  :"9:00 ~ 16:00","opertimet"  :"미운영","opertimes"  :"미운영","tel"  :"052-289-3450\r"},{"id"  :"202","date"  :"2021년 07월 07일 21시","able"  :"○","sido"  :"울산","sigungu"  :"북구","name"  :"울산시티병원","addr"  :"울산광역시 북구 산업로 1007","latitude"  :"35.582894","longitude"  :"129.3588552","opertimew"  :"9:00 ~ 16:00","opertimet"  :"9:00 ~ 12:00","opertimes"  :"미운영","tel"  :"052-280-9000, 9178\r"},{"id"  :"203","date"  :"2021년 07월 07일 21시","able"  :"○","sido"  :"울산","sigungu"  :"중구","name"  :"울산중구보건소","addr"  :"울산 중구 남외동  603-2","latitude"  :"35.5694483","longitude"  :"129.3504562","opertimew"  :"09:00 ~ 16:00","opertimet"  :"미운영","opertimes"  :"미운영","tel"  :"052-290-4300\r"},{"id"  :"204","date"  :"2021년 07월 07일 21시","able"  :"○","sido"  :"울산","sigungu"  :"중구","name"  :"동강병원","addr"  :"울산광역시 중구 태화로 239","latitude"  :"35.553663","longitude"  :"129.3020349","opertimew"  :"09:00 ~ 17:00","opertimet"  :"미운영","opertimes"  :"미운영","tel"  :"052-241-1119\r"},{"id"  :"205","date"  :"2021년 07월 07일 21시","able"  :"○","sido"  :"울산","sigungu"  :"울주군","name"  :"울주군보건소","addr"  :"울산 울주군 삼남읍 서향교1길 67-12 울주군보건소","latitude"  :"35.5584012","longitude"  :"129.113771","opertimew"  :"09:00 ~ 16:00","opertimet"  :"미운영","opertimes"  :"미운영","tel"  :"052-204-2798\r"},{"id"  :"206","date"  :"2021년 07월 07일 21시","able"  :"○","sido"  :"울산","sigungu"  :"울주군","name"  :"서울산보람병원","addr"  :"울주군 삼남읍 중평로 53","latitude"  :"35.5596168","longitude"  :"129.1205746","opertimew"  :"09:00 ~ 17:00","opertimet"  :"09:00 ~ 12:00","opertimes"  :"미운영","tel"  :"052-255-7114\r"},{"id"  :"207","date"  :"2021년 07월 07일 21시","able"  :"○","sido"  :"울산","sigungu"  :"울주군","name"  :"KTX역 선별진료소","addr"  :"울주군 삼남읍 신화리467","latitude"  :"35.5512853","longitude"  :"129.1379607","opertimew"  :"10:00 ~ 18:00","opertimet"  :"10:00 ~ 18:00","opertimes"  :"10:00 ~ 18:00","tel"  :"052-229-3562\r"},{"id"  :"208","date"  :"2021년 07월 07일 21시","able"  :"○","sido"  :"경기","sigungu"  :"가평군","name"  :"가평군보건소","addr"  :"경기 가평군 가평읍 읍내3리 624-1 ","latitude"  :"37.8234298","longitude"  :"127.5162429","opertimew"  :"09:00 ~ 18:00","opertimet"  :"09:00 ~ 17:00","opertimes"  :"09:00 ~ 17:00","tel"  :"031-582-2488\r"},{"id"  :"209","date"  :"2021년 07월 07일 21시","able"  :"○","sido"  :"경기","sigungu"  :"가평군","name"  :"HJ매그놀리아국제병원","addr"  :"경기도 가평군 설악면 미사리로 267-117 ","latitude"  :"37.6924953","longitude"  :"127.5211738","opertimew"  :"09:00 ~ 24:00","opertimet"  :"09:00 ~ 18:00","opertimes"  :"09:00 ~ 18:00","tel"  :"031-589-4300\r"},{"id"  :"210","date"  :"2021년 07월 07일 21시","able"  :"○","sido"  :"경기","sigungu"  :"고양시","name"  :"고양시덕양구보건소","addr"  :"경기 고양시 덕양구 주교동 603 덕양구보건소","latitude"  :"37.6577337","longitude"  :"126.831185","opertimew"  :"09:00 ~ 20:00","opertimet"  :"09:00 ~ 18:00","opertimes"  :"09:00 ~ 18:00","tel"  :"031-8075-4059\r"},{"id"  :"211","date"  :"2021년 07월 07일 21시","able"  :"○","sido"  :"경기","sigungu"  :"고양시","name"  :"의료법인명지의료재단명지병원","addr"  :"경기 고양시 덕양구 화수로14번길 55","latitude"  :"37.6420879","longitude"  :"126.830935","opertimew"  :"24:00 ~ 24:00","opertimet"  :"24:00 ~ 24:00","opertimes"  :"24:00 ~ 24:00","tel"  :"031-810-5114\r"},{"id"  :"212","date"  :"2021년 07월 07일 21시","able"  :"○","sido"  :"경기","sigungu"  :"과천시","name"  :"과천시보건소","addr"  :"경기 과천시 중앙동 과천시청 관문로 69 (중앙동)","latitude"  :"37.4291883","longitude"  :"126.9876194","opertimew"  :"09:00 ~ 20:00","opertimet"  :"09:00 ~ 12:00","opertimes"  :"09:00 ~ 12:00","tel"  :"02-2150-3562\r"},{"id"  :"213","date"  :"2021년 07월 07일 21시","able"  :"○","sido"  :"경기","sigungu"  :"광명시","name"  :"광명시보건소","addr"  :"경기 광명시 하안1동 230-1 오리로613","latitude"  :"37.4565171","longitude"  :"126.8787506","opertimew"  :"09:30 ~ 18:00","opertimet"  :"09:30 ~ 15:00","opertimes"  :"09:30 ~ 15:00","tel"  :"02-2680-2577\r"},{"id"  :"214","date"  :"2021년 07월 07일 21시","able"  :"○","sido"  :"경기","sigungu"  :"광명시","name"  :"광명성애병원","addr"  :"경기도 광명시 디지털로 36","latitude"  :"37.4732445","longitude"  :"126.8718849","opertimew"  :"09:00 ~ 17:00","opertimet"  :"미운영","opertimes"  :"미운영","tel"  :"02-2680-7339\r"},{"id"  :"215","date"  :"2021년 07월 07일 21시","able"  :"○","sido"  :"경기","sigungu"  :"광주시","name"  :"광주시보건소","addr"  :"경기 광주시 경안동 115","latitude"  :"37.4163946","longitude"  :"127.2505","opertimew"  :"09:00 ~ 17:00","opertimet"  :"09:00 ~ 13:00","opertimes"  :"09:00 ~ 13:00","tel"  :"031-760-2110\r"},{"id"  :"216","date"  :"2021년 07월 07일 21시","able"  :"○","sido"  :"경기","sigungu"  :"광주시","name"  :"참조은병원","addr"  :"광주대로 45","latitude"  :"37.4109034","longitude"  :"127.26023","opertimew"  :"09:00 ~ 17:00","opertimet"  :"09:00 ~ 13:00","opertimes"  :"미운영","tel"  :"031-767-7575\r"},{"id"  :"217","date"  :"2021년 07월 07일 21시","able"  :"○","sido"  :"경기","sigungu"  :"구리시","name"  :"구리시보건소","addr"  :"경기 구리시 인창동 674-3","latitude"  :"37.6045574","longitude"  :"127.1450574","opertimew"  :"09:30 ~ 21:00","opertimet"  :"09:30 ~ 18:00","opertimes"  :"09:30 ~ 18:00","tel"  :"031-550-8432\r"},{"id"  :"218","date"  :"2021년 07월 07일 21시","able"  :"○","sido"  :"경기","sigungu"  :"구리시","name"  :"한양대학교구리병원","addr"  :"경기도 구리시 경춘로 153","latitude"  :"37.6011613","longitude"  :"127.1323195","opertimew"  :"9:00 ~ 17:30","opertimet"  :"9:00 ~ 12:30","opertimes"  :"미운영","tel"  :"1644-9118\r"},{"id"  :"219","date"  :"2021년 07월 07일 21시","able"  :"○","sido"  :"경기","sigungu"  :"구리시","name"  :"원진녹색병원","addr"  :"경기도 구리시 동구릉로65","latitude"  :"37.6060922","longitude"  :"127.1339736","opertimew"  :"9:00 ~ 16:30","opertimet"  :"9:00 ~ 10:30","opertimes"  :"미운영","tel"  :"031-550-1111\r"},{"id"  :"220","date"  :"2021년 07월 07일 21시","able"  :"○","sido"  :"경기","sigungu"  :"군포시","name"  :"군포시보건소","addr"  :"경기 군포시 부곡동 770-1 (군포로221)","latitude"  :"37.3330901","longitude"  :"126.9256799","opertimew"  :"09:00 ~ 17:00","opertimet"  :"09:00 ~ 12:00","opertimes"  :"미운영","tel"  :"031-461-5464\r"},{"id"  :"221","date"  :"2021년 07월 07일 21시","able"  :"○","sido"  :"경기","sigungu"  :"군포시","name"  :"원광대학교의과대학 산본병원","addr"  :"경기도 군포시 산본로 321","latitude"  :"37.3593764","longitude"  :"126.9335943","opertimew"  :"09:00 ~ 11:30","opertimet"  :"미운영","opertimes"  :"미운영","tel"  :"031-390-2345\r"},{"id"  :"222","date"  :"2021년 07월 07일 21시","able"  :"○","sido"  :"경기","sigungu"  :"군포시","name"  :"효산의료재단법인 지샘병원","addr"  :"경기도 군포시 군포로 591","latitude"  :"37.3586521","longitude"  :"126.9472959","opertimew"  :"09:00 ~ 16:30","opertimet"  :"09:00 ~ 11:30","opertimes"  :"미운영","tel"  :"031-389-3119\r"},{"id"  :"223","date"  :"2021년 07월 07일 21시","able"  :"○","sido"  :"경기","sigungu"  :"용인시","name"  :"기흥구보건소","addr"  :"경기도 용인시 기흥구 신갈로 58번길 11","latitude"  :"37.2725093","longitude"  :"127.1070081","opertimew"  :"09:00 ~ 17:00","opertimet"  :"09:00 ~ 13:00","opertimes"  :"09:00 ~ 13:00","tel"  :"031-324-6975\r"},{"id"  :"224","date"  :"2021년 07월 07일 21시","able"  :"○","sido"  :"경기","sigungu"  :"용인시","name"  :"강남병원","addr"  :"경기도 용인시 기흥구 용구대로 411","latitude"  :"37.2816038","longitude"  :"127.1064881","opertimew"  :"08:30 ~ 17:00","opertimet"  :"08:30 ~ 12:00","opertimes"  :"미운영","tel"  :"031-300-0119\r"},{"id"  :"225","date"  :"2021년 07월 07일 21시","able"  :"○","sido"  :"경기","sigungu"  :"용인시","name"  :"용인세브란스병원","addr"  :"용인시 기흥구 동백죽전대로363","latitude"  :"37.2721371","longitude"  :"127.1521978","opertimew"  :"08:30 ~ 17:00","opertimet"  :"08:30 ~ 12:00","opertimes"  :"미운영","tel"  :"031-5189-9010\r"},{"id"  :"226","date"  :"2021년 07월 07일 21시","able"  :"○","sido"  :"경기","sigungu"  :"김포시","name"  :"김포시보건소","addr"  :"경기 김포시 사우동 김포보건소 ","latitude"  :"37.6235331","longitude"  :"126.7227163","opertimew"  :"09:00 ~ 21:00","opertimet"  :"09:00 ~ 18:00","opertimes"  :"09:00 ~ 18:00","tel"  :"031-5186-4051\r"},{"id"  :"227","date"  :"2021년 07월 07일 21시","able"  :"○","sido"  :"경기","sigungu"  :"김포시","name"  :"김포우리병원","addr"  :"경기도 김포시 감암로 11","latitude"  :"37.6323493","longitude"  :"126.7107705","opertimew"  :"09:00 ~ 18:00","opertimet"  :"09:00 ~ 17:00","opertimes"  :"09:00 ~ 17:00","tel"  :"031-999-1000\r"},{"id"  :"228","date"  :"2021년 07월 07일 21시","able"  :"○","sido"  :"경기","sigungu"  :"김포시","name"  :"뉴고려병원","addr"  :"경기도 김포시 김포한강3로 283","latitude"  :"37.6409053","longitude"  :"126.6602394","opertimew"  :"08:30 ~ 17:30","opertimet"  :"08:30 ~ 13:00","opertimes"  :"미운영","tel"  :"1661-7779\r"},{"id"  :"229","date"  :"2021년 07월 07일 21시","able"  :"○","sido"  :"경기","sigungu"  :"김포시","name"  :"히즈메디병원","addr"  :"김포시 김포대로 681 ","latitude"  :"37.6111798","longitude"  :"126.7349638","opertimew"  :"08:00 ~ 21:00","opertimet"  :"08:30 ~ 17:00","opertimes"  :"08:30 ~ 17:00","tel"  :"1588-0223\r"},{"id"  :"230","date"  :"2021년 07월 07일 21시","able"  :"○","sido"  :"경기","sigungu"  :"남양주시","name"  :"남양주보건소","addr"  :"경기 남양주시 다산동(다산2동) 3159-7 남양주시청제2청사 1~2층","latitude"  :"37.607534","longitude"  :"127.1694016","opertimew"  :"09:30 ~ 17:00","opertimet"  :"09:30 ~ 15:00","opertimes"  :"09:30 ~ 15:00","tel"  :"031-590-4454\r"},{"id"  :"231","date"  :"2021년 07월 07일 21시","able"  :"○","sido"  :"경기","sigungu"  :"남양주시","name"  :"남양주보건소 동부보건센터","addr"  :"경기 남양주시 화도읍 비룡로59","latitude"  :"37.6578222","longitude"  :"127.3007017","opertimew"  :"09:30 ~ 17:00","opertimet"  :"09:30 ~ 15:00","opertimes"  :"09:30 ~ 15:00","tel"  :"031-590-8515\r"},{"id"  :"232","date"  :"2021년 07월 07일 21시","able"  :"○","sido"  :"경기","sigungu"  :"동두천시","name"  :"동두천시보건소","addr"  :"경기 동두천시 생연2동 714-9 동두천시보건소 ","latitude"  :"37.896579","longitude"  :"127.0516751","opertimew"  :"09:00 ~ 17:30","opertimet"  :"09:30 ~ 12:30","opertimes"  :"미운영","tel"  :"031-860-3425\r"},{"id"  :"233","date"  :"2021년 07월 07일 21시","able"  :"○","sido"  :"경기","sigungu"  :"안양시","name"  :"안양시 만안구보건소","addr"  :"경기 안양시 만안구 안양동(안양6동) 532-1","latitude"  :"37.385858","longitude"  :"126.9327303","opertimew"  :"09:00 ~ 21:00","opertimet"  :"09:00 ~ 18:00","opertimes"  :"미운영","tel"  :"031-8045-3472\r"},{"id"  :"234","date"  :"2021년 07월 07일 21시","able"  :"○","sido"  :"경기","sigungu"  :"안양시","name"  :"샘안양병원","addr"  :"경기도 안양시 만안구 삼덕로 9","latitude"  :"37.3934995","longitude"  :"126.9245371","opertimew"  :"08:30 ~ 17:30","opertimet"  :"08:30 ~ 12:30","opertimes"  :"미운영","tel"  :"031-467-9119\r"},{"id"  :"235","date"  :"2021년 07월 07일 21시","able"  :"○","sido"  :"경기","sigungu"  :"성남시","name"  :"성남시분당구보건소","addr"  :"경기 성남시 분당구 야탑동(야탑1동) 349 분당보건소","latitude"  :"37.4110097","longitude"  :"127.1246119","opertimew"  :"09:00 ~ 21:00","opertimet"  :"09:00 ~ 17:00","opertimes"  :"09:00 ~ 17:00","tel"  :"031-729-3990\r"},{"id"  :"236","date"  :"2021년 07월 07일 21시","able"  :"○","sido"  :"경기","sigungu"  :"성남시","name"  :"분당차병원","addr"  :"경기도 성남시 분당구 야탑로 59(야탑동)","latitude"  :"37.4102789","longitude"  :"127.1254597","opertimew"  :"09:00 ~ 17:00","opertimet"  :"09:00 ~ 12:00","opertimes"  :"미운영","tel"  :"031-780-5546\r"},{"id"  :"237","date"  :"2021년 07월 07일 21시","able"  :"○","sido"  :"경기","sigungu"  :"성남시","name"  :"분당제생병원","addr"  :"경기도 성남시 분당구서현로180번길20(서현동)","latitude"  :"37.3881717","longitude"  :"127.1217664","opertimew"  :"09:00 ~ 17:00","opertimet"  :"09:00 ~ 12:00","opertimes"  :"미운영","tel"  :"031-779-6594\r"},{"id"  :"238","date"  :"2021년 07월 07일 21시","able"  :"○","sido"  :"경기","sigungu"  :"성남시","name"  :"성남시수정구보건소","addr"  :"경기 성남시 수정구 신흥동 3435 수정구보건소 218","latitude"  :"37.4443074","longitude"  :"127.1441357","opertimew"  :"09:00 ~ 17:00","opertimet"  :"09:00 ~ 13:00","opertimes"  :"09:00 ~ 13:00","tel"  :"031-729-3870\r"},{"id"  :"239","date"  :"2021년 07월 07일 21시","able"  :"○","sido"  :"경기","sigungu"  :"성남시","name"  :"성남시의료원","addr"  :"성남시 수정구 수정로 171번길 10","latitude"  :"37.4448723","longitude"  :"127.138907","opertimew"  :"08:30 ~ 17:00","opertimet"  :"미운영","opertimes"  :"미운영","tel"  :"031-738-7000\r"},{"id"  :"240","date"  :"2021년 07월 07일 21시","able"  :"○","sido"  :"경기","sigungu"  :"성남시","name"  :"순천의료재단 정병원","addr"  :"수정구 수정로 76","latitude"  :"37.4398303","longitude"  :"127.1290044","opertimew"  :"13:30 ~ 17:30","opertimet"  :"09:00 ~ 12:00","opertimes"  :"미운영","tel"  :"031-757-8900\r"},{"id"  :"241","date"  :"2021년 07월 07일 21시","able"  :"○","sido"  :"경기","sigungu"  :"수원시","name"  :"수원시권선구보건소","addr"  :"경기도 수원시 권선구 호매실로 22-50","latitude"  :"37.2587056","longitude"  :"126.9711223","opertimew"  :"09:00 ~ 17:00","opertimet"  :"09:00 ~ 13:00","opertimes"  :"09:00 ~ 13:00","tel"  :"031-228-6717\r"},{"id"  :"242","date"  :"2021년 07월 07일 21시","able"  :"○","sido"  :"경기","sigungu"  :"시흥시","name"  :"시흥시보건소","addr"  :"경기 시흥시 대야동 484-3 (호현로55)","latitude"  :"37.4455791","longitude"  :"126.785283","opertimew"  :"09:30 ~ 17:00","opertimet"  :"09:30 ~ 13:00","opertimes"  :"09:00 ~ 12:30","tel"  :"031-310-6815~8\r"},{"id"  :"243","date"  :"2021년 07월 07일 21시","able"  :"○","sido"  :"경기","sigungu"  :"시흥시","name"  :"시흥시화병원","addr"  :"경기도 시흥시 군자천로 381","latitude"  :"37.3342544","longitude"  :"126.7222734","opertimew"  :"00:00 ~ 24:00","opertimet"  :"09:00 ~ 24:00","opertimes"  :"09:00 ~ 24:00","tel"  :"031-5189-0516\r"},{"id"  :"244","date"  :"2021년 07월 07일 21시","able"  :"○","sido"  :"경기","sigungu"  :"시흥시","name"  :"신천연합병원","addr"  :"시흥시 복지로 57","latitude"  :"37.4445521","longitude"  :"126.789516","opertimew"  :"08:30 ~ 17:30","opertimet"  :"미운영","opertimes"  :"미운영","tel"  :"031-310-6527\r"},{"id"  :"245","date"  :"2021년 07월 07일 21시","able"  :"○","sido"  :"경기","sigungu"  :"시흥시","name"  :"센트럴병원","addr"  :"시흥시 공단1대로 237","latitude"  :"37.3367245","longitude"  :"126.7281671","opertimew"  :"09:00 ~ 24:00","opertimet"  :"09:00 ~ 24:00","opertimes"  :"09:00 ~ 24:00","tel"  :"031-8041-3752,3968\r"},{"id"  :"246","date"  :"2021년 07월 07일 21시","able"  :"○","sido"  :"경기","sigungu"  :"시흥시","name"  :"정왕보건지소","addr"  :"시흥시 정왕대로233번길 19","latitude"  :"37.3468122","longitude"  :"126.7400834","opertimew"  :"09:30 ~ 17:00","opertimet"  :"09:00 ~ 12:30","opertimes"  :"09:30 ~ 13:00","tel"  :"031-310-5901\r"},{"id"  :"247","date"  :"2021년 07월 07일 21시","able"  :"○","sido"  :"경기","sigungu"  :"안산시","name"  :"안산시단원보건소","addr"  :"경기 안산시 단원구 초지동 666-8 안산시 단원보건소","latitude"  :"37.3206335","longitude"  :"126.8150968","opertimew"  :"09:00 ~ 17:00","opertimet"  :"09:00 ~ 13:00","opertimes"  :"09:00 ~ 13:00","tel"  :"031-481-6363\r"},{"id"  :"248","date"  :"2021년 07월 07일 21시","able"  :"○","sido"  :"경기","sigungu"  :"안산시 단원구","name"  :"고려대학교안산병원","addr"  :"경기도 안산시 단원구 적금로 123","latitude"  :"37.3191333","longitude"  :"126.8252651","opertimew"  :"09:00 ~ 16:00","opertimet"  :"미운영","opertimes"  :"미운영","tel"  :"031-412-5400\r"},{"id"  :"249","date"  :"2021년 07월 07일 21시","able"  :"○","sido"  :"경기","sigungu"  :"안산시 단원구","name"  :"의료법인대아의료재단한도병원","addr"  :"경기도 안산시 단원구 선부광장로 103","latitude"  :"37.334018","longitude"  :"126.8076137","opertimew"  :"09:00 ~ 17:00","opertimet"  :"09:00 ~ 12:00","opertimes"  :"미운영","tel"  :"031-8040-1369\r"},{"id"  :"250","date"  :"2021년 07월 07일 21시","able"  :"○","sido"  :"경기","sigungu"  :"안산시","name"  :"안산시상록수보건소","addr"  :"경기 안산시 상록구 사1동  1584","latitude"  :"37.3009783","longitude"  :"126.8449019","opertimew"  :"09:00 ~ 17:00","opertimet"  :"09:00 ~ 13:00","opertimes"  :"09:00 ~ 13:00","tel"  :"031-481-5894\r"},{"id"  :"251","date"  :"2021년 07월 07일 21시","able"  :"○","sido"  :"경기","sigungu"  :"안산시","name"  :"근로복지공단안산병원","addr"  :"안산시 상록구  구룡로 87","latitude"  :"37.3166128","longitude"  :"126.8743722","opertimew"  :"08:30 ~ 17:00","opertimet"  :"미운영","opertimes"  :"미운영","tel"  :"031-500-1770\r"},{"id"  :"252","date"  :"2021년 07월 07일 21시","able"  :"○","sido"  :"경기","sigungu"  :"안성시","name"  :"안성시보건소","addr"  :"경기도 안성시 강변로 74번길 18(도기동)","latitude"  :"37.0001476","longitude"  :"127.2698156","opertimew"  :"09:00 ~ 18:00","opertimet"  :"09:00 ~ 14:00","opertimes"  :"미운영","tel"  :"031-678-5724\r"},{"id"  :"253","date"  :"2021년 07월 07일 21시","able"  :"○","sido"  :"경기","sigungu"  :"안성시","name"  :"경기도의료원 안성병원","addr"  :"경기도 안성시 남파로 95(당왕동)","latitude"  :"37.0125675","longitude"  :"127.269222","opertimew"  :"08:30 ~ 17:30","opertimet"  :"미운영","opertimes"  :"미운영","tel"  :"031-8046-5000\r"},{"id"  :"254","date"  :"2021년 07월 07일 21시","able"  :"○","sido"  :"경기","sigungu"  :"안성시","name"  :"안성성모병원","addr"  :"안성시 시장길 58(서인동)","latitude"  :"37.0062179","longitude"  :"127.2710329","opertimew"  :"00:00 ~ 00:00","opertimet"  :"00:00 ~ 00:00","opertimes"  :"00:00 ~ 00:00","tel"  :"031-675-6007\r"},{"id"  :"255","date"  :"2021년 07월 07일 21시","able"  :"○","sido"  :"경기","sigungu"  :"안양시","name"  :"안양시 동안구보건소","addr"  :"경기 안양시 동안구 비산동 1111번지","latitude"  :"37.3925391","longitude"  :"126.9516444","opertimew"  :"09:00 ~ 21:00","opertimet"  :"미운영","opertimes"  :"09:00 ~ 18:00","tel"  :"031-8045-4490\r"},{"id"  :"256","date"  :"2021년 07월 07일 21시","able"  :"○","sido"  :"경기","sigungu"  :"안양시","name"  :"한림대학교성심병원","addr"  :"안양시 동안구 관평로 170번길11","latitude"  :"37.3925198","longitude"  :"126.9612959","opertimew"  :"08:30 ~ 16:30","opertimet"  :"08:30 ~ 12:00","opertimes"  :"미운영","tel"  :"031-380-4088,5975\r"},{"id"  :"257","date"  :"2021년 07월 07일 21시","able"  :"○","sido"  :"경기","sigungu"  :"양주시","name"  :"양주시보건소","addr"  :"경기 양주시 남방동(양주1동) 1-1 양주시보건소,양주시의회,양주시청 양주시보건소","latitude"  :"37.7855648","longitude"  :"127.0466233","opertimew"  :"09:00 ~ 17:00","opertimet"  :"09:00 ~ 12:00","opertimes"  :"미운영","tel"  :"031-8082-7777\r"},{"id"  :"258","date"  :"2021년 07월 07일 21시","able"  :"○","sido"  :"경기","sigungu"  :"양평군","name"  :"양평군보건소","addr"  :"경기 양평군 양평읍 양근리 마유산로 17번지","latitude"  :"37.4969798","longitude"  :"127.4866817","opertimew"  :"09:00 ~ 18:00","opertimet"  :"09:00 ~ 17:00","opertimes"  :"09:00 ~ 17:00","tel"  :"031-770-3490\r"},{"id"  :"259","date"  :"2021년 07월 07일 21시","able"  :"○","sido"  :"경기","sigungu"  :"양평군","name"  :"양평병원","addr"  :"경기도 양평군 양평읍 중앙로 129","latitude"  :"37.4939802","longitude"  :"127.5033376","opertimew"  :"09:00 ~ 18:00","opertimet"  :"09:00 ~ 17:00","opertimes"  :"미운영","tel"  :"031-770-5119\r"},{"id"  :"260","date"  :"2021년 07월 07일 21시","able"  :"○","sido"  :"경기","sigungu"  :"여주시","name"  :"여주시보건소","addr"  :"경기 여주시 상동 358-3 여주시보건소","latitude"  :"37.2945522","longitude"  :"127.6403573","opertimew"  :"09:00 ~ 17:00","opertimet"  :"09:00 ~ 13:00","opertimes"  :"09:00 ~ 13:00","tel"  :"031-887-3598\r"},{"id"  :"261","date"  :"2021년 07월 07일 21시","able"  :"○","sido"  :"경기","sigungu"  :"여주시","name"  :"세종여주병원","addr"  :"경기도 여주시 청심로 39","latitude"  :"37.3014144","longitude"  :"127.6251858","opertimew"  :"09:00 ~ 18:00","opertimet"  :"09:00 ~ 13:00","opertimes"  :"미운영","tel"  :"031-880-7700\r"},{"id"  :"262","date"  :"2021년 07월 07일 21시","able"  :"○","sido"  :"경기","sigungu"  :"오산시","name"  :"오산시보건소","addr"  :"경기도 오산시 오산동 25","latitude"  :"37.1596239","longitude"  :"127.0776511","opertimew"  :"09:00 ~ 17:00","opertimet"  :"09:00 ~ 12:00","opertimes"  :"09:00 ~ 12:00","tel"  :"031-8036-6025\r"},{"id"  :"263","date"  :"2021년 07월 07일 21시","able"  :"○","sido"  :"경기","sigungu"  :"오산시","name"  :"오산한국병원","addr"  :"오산시 밀머리로1번길 16","latitude"  :"37.1413488","longitude"  :"127.0755903","opertimew"  :"09:00 ~ 18:00","opertimet"  :"09:00 ~ 13:00","opertimes"  :"미운영","tel"  :"031-379-8300\r"},{"id"  :"264","date"  :"2021년 07월 07일 21시","able"  :"○","sido"  :"경기","sigungu"  :"부천시","name"  :"순천향대학교부속부천병원","addr"  :"경기도 부천시 조마루로 17","latitude"  :"37.4982887","longitude"  :"126.7741687","opertimew"  :"09:00 ~ 17:00","opertimet"  :"09:00 ~ 12:00","opertimes"  :"미운영","tel"  :"032-621-5114\r"},{"id"  :"265","date"  :"2021년 07월 07일 21시","able"  :"○","sido"  :"경기","sigungu"  :"부천시","name"  :"가톨릭대학교부천성모병원","addr"  :"경기도 부천시 소사로 327","latitude"  :"37.4861238","longitude"  :"126.7924958","opertimew"  :"09:00 ~ 17:00","opertimet"  :"09:00 ~ 12:00","opertimes"  :"미운영","tel"  :"032-340-2402\r"},{"id"  :"266","date"  :"2021년 07월 07일 21시","able"  :"○","sido"  :"경기","sigungu"  :"부천시","name"  :"부천세종병원","addr"  :"경기도 부천시 호현로 489번길 28","latitude"  :"37.4811218","longitude"  :"126.791382","opertimew"  :"09:00 ~ 16:00","opertimet"  :"미운영","opertimes"  :"미운영","tel"  :"032-340-1897\r"},{"id"  :"267","date"  :"2021년 07월 07일 21시","able"  :"○","sido"  :"경기","sigungu"  :"부천시","name"  :"부천시보건소","addr"  :"경기 부천시 길주로 486, 부천종합운동장 부설주차장 C동 1층","latitude"  :"37.505452","longitude"  :"126.797498","opertimew"  :"09:30 ~ 17:30","opertimet"  :"09:30 ~ 13:00","opertimes"  :"09:30 ~ 13:00","tel"  :"032-625-8881~4\r"},{"id"  :"268","date"  :"2021년 07월 07일 21시","able"  :"○","sido"  :"경기","sigungu"  :"의왕시","name"  :"의왕시보건소","addr"  :"경기 의왕시 고천동  108","latitude"  :"37.3437197","longitude"  :"126.9720999","opertimew"  :"09:00 ~ 19:00","opertimet"  :"09:00 ~ 15:00","opertimes"  :"09:00 ~ 15:00","tel"  :"031-345-3572\r"},{"id"  :"269","date"  :"2021년 07월 07일 21시","able"  :"○","sido"  :"경기","sigungu"  :"의왕시","name"  :"아가페의료재단 시티병원","addr"  :"의왕시 오전천로 29","latitude"  :"37.3502461","longitude"  :"126.9767752","opertimew"  :"10:00 ~ 12:00","opertimet"  :"미운영","opertimes"  :"미운영","tel"  :"031-340-2555\r"},{"id"  :"270","date"  :"2021년 07월 07일 21시","able"  :"○","sido"  :"경기","sigungu"  :"의정부시","name"  :"의정부시보건소","addr"  :"경기 의정부시 의정부2동 516 의정부시보건소 ","latitude"  :"37.736154","longitude"  :"127.0395143","opertimew"  :"10:00 ~ 17:00","opertimet"  :"10:00 ~ 13:00","opertimes"  :"10:00 ~ 13:00","tel"  :"031-870-6011~4\r"},{"id"  :"271","date"  :"2021년 07월 07일 21시","able"  :"○","sido"  :"경기","sigungu"  :"의정부시","name"  :"경기도의료원의정부병원(응급실)","addr"  :"의정부시 흥선로 142","latitude"  :"37.7410385","longitude"  :"127.0425242","opertimew"  :"09:00 ~ 17:00","opertimet"  :"미운영","opertimes"  :"미운영","tel"  :"031-828-5143\r"},{"id"  :"272","date"  :"2021년 07월 07일 21시","able"  :"○","sido"  :"경기","sigungu"  :"의정부시","name"  :"가톨릭대학교 의정부 성모병원 ","addr"  :"의정부시 천보로 271","latitude"  :"37.7583561","longitude"  :"127.0774459","opertimew"  :"08:30 ~ 16:30","opertimet"  :"미운영","opertimes"  :"미운영","tel"  :"1661-7500\r"},{"id"  :"273","date"  :"2021년 07월 07일 21시","able"  :"○","sido"  :"경기","sigungu"  :"의정부시","name"  :"추병원","addr"  :"경기도 의정부시 평화로 650","latitude"  :"37.7499591","longitude"  :"127.0450362","opertimew"  :"09:30 ~ 16:00","opertimet"  :"09:30 ~ 11:30","opertimes"  :"미운영","tel"  :"031-823-8063\r"},{"id"  :"274","date"  :"2021년 07월 07일 21시","able"  :"○","sido"  :"경기","sigungu"  :"의정부시","name"  :"의정부백병원","addr"  :"경기도 의정부시 금신로  322","latitude"  :"37.7452366","longitude"  :"127.0620467","opertimew"  :"08:30 ~ 16:30","opertimet"  :"08:30 ~ 11:30","opertimes"  :"미운영","tel"  :"031-842-1211\r"},{"id"  :"275","date"  :"2021년 07월 07일 21시","able"  :"○","sido"  :"경기","sigungu"  :"의정부시","name"  :"의정부을지대학교병원","addr"  :"의정부시 동일로 712(금오동)","latitude"  :"37.7565525","longitude"  :"127.0660432","opertimew"  :"08:30 ~ 16:30","opertimet"  :"미운영","opertimes"  :"미운영","tel"  :"031-951-2083\r"},{"id"  :"276","date"  :"2021년 07월 07일 21시","able"  :"○","sido"  :"경기","sigungu"  :"이천시","name"  :"이천시보건소","addr"  :"경기 이천시 증포동 152-2","latitude"  :"37.2889554","longitude"  :"127.4523668","opertimew"  :"09:00 ~ 18:00","opertimet"  :"09:00 ~ 13:00","opertimes"  :"09:00 ~ 13:00","tel"  :"031-644-4011\r"},{"id"  :"277","date"  :"2021년 07월 07일 21시","able"  :"○","sido"  :"경기","sigungu"  :"이천시","name"  :"경기도의료원이천병원","addr"  :"경기도 이천시 경충대로 2742","latitude"  :"37.2825934","longitude"  :"127.4328154","opertimew"  :"08:30 ~ 17:00","opertimet"  :"미운영","opertimes"  :"미운영","tel"  :"031-630-4200\r"},{"id"  :"278","date"  :"2021년 07월 07일 21시","able"  :"○","sido"  :"경기","sigungu"  :"고양시","name"  :"일산서구보건소","addr"  :"경기 고양시 일산서구 일산동 일중로 54","latitude"  :"37.6843777","longitude"  :"126.77588","opertimew"  :"09:00 ~ 20:00","opertimet"  :"09:00 ~ 18:00","opertimes"  :"09:00 ~ 18:00","tel"  :"031-8075-4212\r"},{"id"  :"279","date"  :"2021년 07월 07일 21시","able"  :"○","sido"  :"경기","sigungu"  :"고양시","name"  :"인제대학교일산백병원","addr"  :"경기 고양시 일산서구 주화로 170","latitude"  :"37.6742288","longitude"  :"126.750367","opertimew"  :"07:00 ~ 17:00","opertimet"  :"미운영","opertimes"  :"미운영","tel"  :"031-910-7114\r"},{"id"  :"280","date"  :"2021년 07월 07일 21시","able"  :"○","sido"  :"경기","sigungu"  :"수원시","name"  :"장안구보건소","addr"  :"경기 수원시 장안구 조원동 888번지","latitude"  :"37.3031937","longitude"  :"127.009906","opertimew"  :"09:00 ~ 17:00","opertimet"  :"09:00 ~ 13:00","opertimes"  :"09:00 ~ 13:00","tel"  :"031-228-5717\r"},{"id"  :"281","date"  :"2021년 07월 07일 21시","able"  :"○","sido"  :"경기","sigungu"  :"수원시","name"  :"경기도의료원 수원병원","addr"  :"수원시 장안구 수성로245번길 69","latitude"  :"37.2920141","longitude"  :"126.996646","opertimew"  :"09:00 ~ 17:00","opertimet"  :"09:00 ~ 12:00","opertimes"  :"09:00 ~ 12:00","tel"  :"031-888-0119\r"},{"id"  :"282","date"  :"2021년 07월 07일 21시","able"  :"○","sido"  :"경기","sigungu"  :"성남시","name"  :"성남시중원구보건소","addr"  :"경기 성남시 중원구 상대원1동 269-10","latitude"  :"37.4419311","longitude"  :"127.1706498","opertimew"  :"09:00 ~ 21:00","opertimet"  :"09:00 ~ 17:00","opertimes"  :"09:00 ~ 17:00","tel"  :"031-729-3930\r"},{"id"  :"283","date"  :"2021년 07월 07일 21시","able"  :"○","sido"  :"경기","sigungu"  :"성남시","name"  :"성남중앙병원","addr"  :"중원구 산성대로 476번길 12","latitude"  :"37.4527005","longitude"  :"127.1620743","opertimew"  :"09:00 ~ 17:00","opertimet"  :"09:00 ~ 12:00","opertimes"  :"미운영","tel"  :"031-799-5366\r"},{"id"  :"284","date"  :"2021년 07월 07일 21시","able"  :"○","sido"  :"경기","sigungu"  :"용인시","name"  :"처인구보건소","addr"  :"경기 용인시 처인구 삼가동 556","latitude"  :"37.240608","longitude"  :"127.1772935","opertimew"  :"09:00 ~ 18:00","opertimet"  :"09:00 ~ 18:00","opertimes"  :"09:00 ~ 18:00","tel"  :"031-324-4981\r"},{"id"  :"285","date"  :"2021년 07월 07일 21시","able"  :"○","sido"  :"경기","sigungu"  :"용인시","name"  :"영문의료재단 다보스병원","addr"  :"처인구 백옥대로 1082번길 18","latitude"  :"37.2314675","longitude"  :"127.2113666","opertimew"  :"00:00 ~ 24:00","opertimet"  :"00:00 ~ 24:00","opertimes"  :"00:00 ~ 24:00","tel"  :"031-8021-2130\r"},{"id"  :"286","date"  :"2021년 07월 07일 21시","able"  :"○","sido"  :"경기","sigungu"  :"용인시","name"  :"용인서울병원","addr"  :"경기도 용인시 처인구 고림로 81 ","latitude"  :"37.2403252","longitude"  :"127.2145981","opertimew"  :"09:00 ~ 17:30","opertimet"  :"09:00 ~ 12:30","opertimes"  :"미운영","tel"  :"031-322-0001\r"},{"id"  :"287","date"  :"2021년 07월 07일 21시","able"  :"○","sido"  :"경기","sigungu"  :"파주시","name"  :"파주시보건소","addr"  :"경기 파주시 금촌동(금촌1동) 953-1 파주시보건소 ","latitude"  :"37.7562857","longitude"  :"126.7739286","opertimew"  :"09:00 ~ 18:00","opertimet"  :"09:00 ~ 18:00","opertimes"  :"09:00 ~ 18:00","tel"  :"031-940-5577\r"},{"id"  :"288","date"  :"2021년 07월 07일 21시","able"  :"○","sido"  :"경기","sigungu"  :"파주시","name"  :"경기도의료원 파주병원","addr"  :"경기도 파주시 중앙로 207","latitude"  :"37.7545554","longitude"  :"126.7796972","opertimew"  :"08:30 ~ 17:30","opertimet"  :"미운영","opertimes"  :"미운영","tel"  :"031-940-9119\r"},{"id"  :"289","date"  :"2021년 07월 07일 21시","able"  :"○","sido"  :"경기","sigungu"  :"파주시","name"  :"메디인병원","addr"  :"경기도 파주시 시청로 6","latitude"  :"37.7580017","longitude"  :"126.774838","opertimew"  :"09:00 ~ 17:00","opertimet"  :"09:00 ~ 13:00","opertimes"  :"미운영","tel"  :"031-943-1191\r"},{"id"  :"290","date"  :"2021년 07월 07일 21시","able"  :"○","sido"  :"경기","sigungu"  :"수원시","name"  :"팔달구보건소","addr"  :"경기 수원시 팔달구 교동 56-1번지","latitude"  :"37.2713991","longitude"  :"127.0124884","opertimew"  :"09:00 ~ 17:00","opertimet"  :"09:00 ~ 13:00","opertimes"  :"09:00 ~ 13:00","tel"  :"031-228-7716\r"},{"id"  :"291","date"  :"2021년 07월 07일 21시","able"  :"○","sido"  :"경기","sigungu"  :"수원시","name"  :"성빈센트 병원","addr"  :"경기도 수원시 팔달구 중부대로 93 (지동)","latitude"  :"37.2784375","longitude"  :"127.0278484","opertimew"  :"09:00 ~ 16:00","opertimet"  :"미운영","opertimes"  :"미운영","tel"  :"1577-8588\r"},{"id"  :"292","date"  :"2021년 07월 07일 21시","able"  :"○","sido"  :"경기","sigungu"  :"수원시","name"  :"동수원 병원","addr"  :"경기도 수원시 팔달구 중부대로 165 (우만동)","latitude"  :"37.278441","longitude"  :"127.0343254","opertimew"  :"09:00 ~ 17:00","opertimet"  :"10:40 ~ 12:00","opertimes"  :"미운영","tel"  :"031-210-0114\r"},{"id"  :"293","date"  :"2021년 07월 07일 21시","able"  :"○","sido"  :"경기","sigungu"  :"평택시","name"  :"평택시평택보건소","addr"  :"경기 평택시 비전동 850(평택5로 56)","latitude"  :"36.9907621","longitude"  :"127.1118191","opertimew"  :"09:00 ~ 18:00","opertimet"  :"09:00 ~ 13:00","opertimes"  :"09:00 ~ 13:00","tel"  :"031-8024-5559\r"},{"id"  :"294","date"  :"2021년 07월 07일 21시","able"  :"○","sido"  :"경기","sigungu"  :"평택시","name"  :"의료법인 백송의료재단 굿모닝병원","addr"  :"경기도 평택시 중앙로 338","latitude"  :"36.9906469","longitude"  :"127.1205614","opertimew"  :"00:00 ~ 24:00","opertimet"  :"00:00 ~ 24:00","opertimes"  :"00:00 ~ 24:00","tel"  :"031-5182-7582\r"},{"id"  :"295","date"  :"2021년 07월 07일 21시","able"  :"○","sido"  :"경기","sigungu"  :"평택시","name"  :"의료법인 박애의료재단 박애병원","addr"  :"경기도 평택시 평택2로20번길 3 ","latitude"  :"36.9930038","longitude"  :"127.0890655","opertimew"  :"08:30 ~ 17:00","opertimet"  :"08:30 ~ 12:30","opertimes"  :"미운영","tel"  :" 031-650-9219\r"},{"id"  :"296","date"  :"2021년 07월 07일 21시","able"  :"○","sido"  :"경기","sigungu"  :"평택시","name"  :"의료법인 양진의료재단 평택성모병원","addr"  :"경기도 평택시 평택로 284","latitude"  :"36.9994413","longitude"  :"127.0795523","opertimew"  :"08:30 ~ 17:00","opertimet"  :"08:30 ~ 12:30","opertimes"  :"미운영","tel"  :"031-1800-8800\r"},{"id"  :"297","date"  :"2021년 07월 07일 21시","able"  :"○","sido"  :"경기","sigungu"  :"포천시","name"  :"포천시보건소","addr"  :"경기 포천시 신읍동 164-3 (포천시보건소)","latitude"  :"37.900803","longitude"  :"127.201216","opertimew"  :"09:00 ~ 18:00","opertimet"  :"09:00 ~ 13:00","opertimes"  :"09:00 ~ 13:00","tel"  :"031-538-4484\r"},{"id"  :"298","date"  :"2021년 07월 07일 21시","able"  :"○","sido"  :"경기","sigungu"  :"포천시","name"  :"경기도의료원 포천병원","addr"  :"경기도 포천시 포천로 1648","latitude"  :"37.9031637","longitude"  :"127.1981229","opertimew"  :"08:30 ~ 17:30","opertimet"  :"08:30 ~ 17:30","opertimes"  :"08:30 ~ 17:30","tel"  :"031-539-9119\r"},{"id"  :"299","date"  :"2021년 07월 07일 21시","able"  :"○","sido"  :"경기","sigungu"  :"하남시","name"  :"하남시보건소","addr"  :"경기도 하남시 신장2동 520","latitude"  :"37.5391091","longitude"  :"127.2146082","opertimew"  :"09:00 ~ 18:00","opertimet"  :"09:00 ~ 18:00","opertimes"  :"09:00 ~ 18:00","tel"  :"031-790-5917\r"},{"id"  :"300","date"  :"2021년 07월 07일 21시","able"  :"○","sido"  :"경기","sigungu"  :"화성시","name"  :"화성시보건소","addr"  :"경기 화성시 향남읍 발안리  309","latitude"  :"37.1291446","longitude"  :"126.9046066","opertimew"  :"09:00 ~ 18:00","opertimet"  :"미운영","opertimes"  :"미운영","tel"  :"031-5189-1200\r"},{"id"  :"301","date"  :"2021년 07월 07일 21시","able"  :"○","sido"  :"경기","sigungu"  :"화성시","name"  :"원광종합병원","addr"  :"경기 화성시 화산북로 21 ","latitude"  :"37.2099421","longitude"  :"127.0082607","opertimew"  :"09:00 ~ 16:30","opertimet"  :"09:00 ~ 11:00","opertimes"  :"미운영","tel"  :"031-8077-7220\r"},{"id"  :"302","date"  :"2021년 07월 07일 21시","able"  :"○","sido"  :"경기","sigungu"  :"화성시","name"  :"화성중앙종합병원","addr"  :"경기 화성시 향남읍 발안로 5","latitude"  :"37.1313154","longitude"  :"126.9107719","opertimew"  :"09:00 ~ 18:00","opertimet"  :"미운영","opertimes"  :"미운영","tel"  :"031-371-8114\r"},{"id"  :"303","date"  :"2021년 07월 07일 21시","able"  :"○","sido"  :"경기","sigungu"  :"화성시","name"  :"한림대학교동탄성심병원","addr"  :"경기 화성시 큰재봉길 7","latitude"  :"37.2166142","longitude"  :"127.0798384","opertimew"  :"08:30 ~ 17:00","opertimet"  :"08:30 ~ 12:00","opertimes"  :"미운영","tel"  :"031-8086-3616,2110\r"},{"id"  :"304","date"  :"2021년 07월 07일 21시","able"  :"○","sido"  :"경기","sigungu"  :"화성시","name"  :"화성디에스병원","addr"  :"경기도 화성시 남양읍 시청로160번길 46-13","latitude"  :"37.1991926","longitude"  :"126.8262164","opertimew"  :"09:00 ~ 18:00","opertimet"  :"09:00 ~ 18:00","opertimes"  :"09:00 ~ 18:00","tel"  :"1600-5982\r"},{"id"  :"305","date"  :"2021년 07월 07일 21시","able"  :"○","sido"  :"경기","sigungu"  :"수원시","name"  :"영통구보건소","addr"  :"경기 수원시 영통구 영통동 영통로 396","latitude"  :"37.2504343","longitude"  :"127.0645477","opertimew"  :"09:00 ~ 17:00","opertimet"  :"09:00 ~ 13:00","opertimes"  :"09:00 ~ 13:00","tel"  :"031-228-8785\r"},{"id"  :"306","date"  :"2021년 07월 07일 21시","able"  :"○","sido"  :"경기","sigungu"  :"수원시","name"  :"아주대학교병원","addr"  :"수원시 영통구 월드컵로164","latitude"  :"37.2795318","longitude"  :"127.0477406","opertimew"  :"00:00 ~ 00:00","opertimet"  :"00:00 ~ 00:00","opertimes"  :"00:00 ~ 00:00","tel"  :"031-1688-6114\r"},{"id"  :"307","date"  :"2021년 07월 07일 21시","able"  :"○","sido"  :"경기","sigungu"  :"평택시","name"  :"평택시송탄보건소","addr"  :"경기 평택시 서정동 산 12(서정로 295)","latitude"  :"37.076243","longitude"  :"127.0389132","opertimew"  :"09:00 ~ 18:00","opertimet"  :"09:00 ~ 13:00","opertimes"  :"09:00 ~ 13:00","tel"  :"031-8024-7325\r"},{"id"  :"308","date"  :"2021년 07월 07일 21시","able"  :"○","sido"  :"경기","sigungu"  :"평택시","name"  :"박병원","addr"  :"평택시 송탄로 33","latitude"  :"37.0482193","longitude"  :"127.0570011","opertimew"  :"00:00 ~ 24:00","opertimet"  :"00:00 ~ 24:00","opertimes"  :"00:00 ~ 24:00","tel"  :"031-666-2600\r"},{"id"  :"309","date"  :"2021년 07월 07일 21시","able"  :"○","sido"  :"경기","sigungu"  :"고양시","name"  :"일산동구보건소","addr"  :"경기 고양시 일산동구 마두동 1010번지","latitude"  :"37.6568843","longitude"  :"126.7755201","opertimew"  :"09:00 ~ 20:00","opertimet"  :"09:00 ~ 18:00","opertimes"  :"09:00 ~ 18:00","tel"  :"031-8075-4135\r"},{"id"  :"310","date"  :"2021년 07월 07일 21시","able"  :"○","sido"  :"경기","sigungu"  :"고양시","name"  :"국민건강보험공단일산병원","addr"  :"일산동구 일산로100","latitude"  :"37.6454297","longitude"  :"126.7929091","opertimew"  :"09:00 ~ 21:00","opertimet"  :"09:00 ~ 18:00","opertimes"  :"09:00 ~ 18:00","tel"  :"031-900-0750\r"},{"id"  :"311","date"  :"2021년 07월 07일 21시","able"  :"○","sido"  :"경기","sigungu"  :"고양시","name"  :"동국대학교일산불교병원","addr"  :"고양시 일산동구 동국로 27(식사동)","latitude"  :"37.6763007","longitude"  :"126.8067038","opertimew"  :"09:00 ~ 16:30","opertimet"  :"09:00 ~ 11:30","opertimes"  :"미운영","tel"  :"031-961-8013,8010\r"},{"id"  :"312","date"  :"2021년 07월 07일 21시","able"  :"○","sido"  :"경기","sigungu"  :"고양시","name"  :"일산복음병원","addr"  :"경기도 고양시 일산동구 고양대로760","latitude"  :"37.6817198","longitude"  :"126.7799777","opertimew"  :"09:00 ~ 17:00","opertimet"  :"09:00 ~ 12:00","opertimes"  :"미운영","tel"  :"031-929-0330,0331\r"},{"id"  :"313","date"  :"2021년 07월 07일 21시","able"  :"○","sido"  :"경기","sigungu"  :"용인시","name"  :"수지구보건소","addr"  :"경기도 용인시 수지구 포은대로 435 ","latitude"  :"37.3217914","longitude"  :"127.097733","opertimew"  :"09:00 ~ 18:00","opertimet"  :"09:00 ~ 18:00","opertimes"  :"09:00 ~ 18:00","tel"  :"031-324-8451\r"},{"id"  :"314","date"  :"2021년 07월 07일 21시","able"  :"○","sido"  :"경기","sigungu"  :"남양주시","name"  :"남양주풍양보건소","addr"  :"경기 남양주시 진접읍 금곡리 1085, 풍양보건소","latitude"  :"37.71053","longitude"  :"127.1894516","opertimew"  :"09:30 ~ 17:00","opertimet"  :"09:30 ~ 15:00","opertimes"  :"09:30 ~ 15:00","tel"  :"031-590-5371\r"},{"id"  :"315","date"  :"2021년 07월 07일 21시","able"  :"○","sido"  :"경기","sigungu"  :"남양주시","name"  :"남양주한양병원","addr"  :"경기도 남양주시 오남읍 양지로 47-55 ","latitude"  :"37.6823506","longitude"  :"127.20422","opertimew"  :"09:00 ~ 17:30","opertimet"  :"09:00 ~ 12:30","opertimes"  :"09:00 ~ 09:00","tel"  :"031-510-0114\r"},{"id"  :"316","date"  :"2021년 07월 07일 21시","able"  :"○","sido"  :"경기","sigungu"  :"남양주시","name"  :"현대병원","addr"  :"경기도 남양주시 진접읍 봉현로 21 ","latitude"  :"37.7155114","longitude"  :"127.179653","opertimew"  :"09:00 ~ 09:00","opertimet"  :"09:00 ~ 09:00","opertimes"  :"09:00 ~ 09:00","tel"  :"031-574-9119\r"},{"id"  :"317","date"  :"2021년 07월 07일 21시","able"  :"○","sido"  :"경기","sigungu"  :"연천군","name"  :"연천군보건의료원","addr"  :"경기 연천군 전곡읍 은대리 577-36","latitude"  :"38.0233652","longitude"  :"127.0612435","opertimew"  :"09:00 ~ 18:00","opertimet"  :"09:00 ~ 12:00","opertimes"  :"미운영","tel"  :"031-839-4068\r"},{"id"  :"318","date"  :"2021년 07월 07일 21시","able"  :"○","sido"  :"강원","sigungu"  :"강릉시","name"  :"강릉시보건소","addr"  :"강원 강릉시 내곡동 413 강릉시보건소, 가동 강릉시보건소","latitude"  :"37.742799","longitude"  :"128.8827238","opertimew"  :"09:00 ~ 16:00","opertimet"  :"09:00 ~ 16:00","opertimes"  :"09:00 ~ 16:00","tel"  :"033-660-3050\r"},{"id"  :"319","date"  :"2021년 07월 07일 21시","able"  :"○","sido"  :"강원","sigungu"  :"강릉시","name"  :"강릉아산병원","addr"  :"방동길 38","latitude"  :"37.8182428","longitude"  :"128.8592719","opertimew"  :"09:00 ~ 15:30","opertimet"  :"미운영","opertimes"  :"미운영","tel"  :"033-610-4111\r"},{"id"  :"320","date"  :"2021년 07월 07일 21시","able"  :"○","sido"  :"강원","sigungu"  :"강릉시","name"  :"강릉동인병원","addr"  :"강릉대로419번길 42","latitude"  :"37.7727986","longitude"  :"128.9086327","opertimew"  :"00:00 ~ 24:00","opertimet"  :"00:00 ~ 24:00","opertimes"  :"00:00 ~ 24:00","tel"  :"033-651-6161\r"},{"id"  :"321","date"  :"2021년 07월 07일 21시","able"  :"○","sido"  :"강원","sigungu"  :"강릉시","name"  :"강릉고려병원","addr"  :"옥가로 30","latitude"  :"37.7590037","longitude"  :"128.89986","opertimew"  :"10:00 ~ 16:00","opertimet"  :"09:30 ~ 11:00","opertimes"  :"미운영","tel"  :"033-649-0333\r"},{"id"  :"322","date"  :"2021년 07월 07일 21시","able"  :"○","sido"  :"강원","sigungu"  :"강릉시","name"  :"강릉의료원","addr"  :"경강로 2007","latitude"  :"37.74925788","longitude"  :"128.8887361","opertimew"  :"09:00 ~ 16:30","opertimet"  :"미운영","opertimes"  :"미운영","tel"  :"033-610-1200\r"},{"id"  :"323","date"  :"2021년 07월 07일 21시","able"  :"○","sido"  :"강원","sigungu"  :"고성군","name"  :"고성군보건소","addr"  :"강원 고성군 간성읍 수성로 30","latitude"  :"38.3775319","longitude"  :"128.4720276","opertimew"  :"09:00 ~ 18:00","opertimet"  :"09:00 ~ 18:00","opertimes"  :"09:00 ~ 18:00","tel"  :"033-681-4000\r"},{"id"  :"324","date"  :"2021년 07월 07일 21시","able"  :"○","sido"  :"강원","sigungu"  :"동해시","name"  :"동해시보건소","addr"  :"강원 동해시 천곡동 840 보건소 동해시보건소","latitude"  :"37.522886","longitude"  :"129.117069","opertimew"  :"10:00 ~ 16:00","opertimet"  :"10:00 ~ 16:00","opertimes"  :"10:00 ~ 16:00","tel"  :"033-530-2411\r"},{"id"  :"325","date"  :"2021년 07월 07일 21시","able"  :"○","sido"  :"강원","sigungu"  :"동해시","name"  :"의료법인 동해동인병원","addr"  :"동해시 하평로 26","latitude"  :"37.5301401","longitude"  :"129.1073994","opertimew"  :"09:00 ~ 12:00","opertimet"  :"09:00 ~ 12:00","opertimes"  :"미운영","tel"  :"033-530-0400\r"},{"id"  :"326","date"  :"2021년 07월 07일 21시","able"  :"○","sido"  :"강원","sigungu"  :"동해시","name"  :"근로복지공단 동해병원","addr"  :"동해시 하평로 11","latitude"  :"37.5313691","longitude"  :"129.1077852","opertimew"  :"14:00 ~ 17:00","opertimet"  :"14:00 ~ 17:00","opertimes"  :"14:00 ~ 17:00","tel"  :"033-530-3885\r"},{"id"  :"327","date"  :"2021년 07월 07일 21시","able"  :"○","sido"  :"강원","sigungu"  :"삼척시","name"  :"삼척시보건소","addr"  :"강원 삼척시 남양동 347-4","latitude"  :"37.443912","longitude"  :"129.1721753","opertimew"  :"09:00 ~ 16:00","opertimet"  :"10:00 ~ 16:00","opertimes"  :"10:00 ~ 16:00","tel"  :"033-570-4649\r"},{"id"  :"328","date"  :"2021년 07월 07일 21시","able"  :"○","sido"  :"강원","sigungu"  :"삼척시","name"  :"강원도 삼척의료원","addr"  :"강원도 삼척시 오십천로 418","latitude"  :"37.4398318","longitude"  :"129.1633551","opertimew"  :"09:00 ~ 17:00","opertimet"  :"10:00 ~ 14:00","opertimes"  :"10:00 ~ 14:00","tel"  :"033-570-7545\r"},{"id"  :"329","date"  :"2021년 07월 07일 21시","able"  :"○","sido"  :"강원","sigungu"  :"속초시","name"  :"속초시보건소","addr"  :"속초시 동해대로 4229(생활체육관 주차장 내)","latitude"  :"38.1972223","longitude"  :"128.581594","opertimew"  :"09:00 ~ 17:00","opertimet"  :"09:00 ~ 17:00","opertimes"  :"09:00 ~ 17:00","tel"  :"033-639-1531\r"},{"id"  :"330","date"  :"2021년 07월 07일 21시","able"  :"○","sido"  :"강원","sigungu"  :"속초시","name"  :"강원도속초의료원","addr"  :"속초시 영랑호반길 3","latitude"  :"38.2164098","longitude"  :"128.5885347","opertimew"  :"00:00 ~ 24:00","opertimet"  :"00:00 ~ 24:00","opertimes"  :"00:00 ~ 24:00","tel"  :"033-630-6122\r"},{"id"  :"331","date"  :"2021년 07월 07일 21시","able"  :"○","sido"  :"강원","sigungu"  :"속초시","name"  :"속초보광병원","addr"  :"속초시 중앙로 11 ","latitude"  :"38.1979798","longitude"  :"128.5783566","opertimew"  :"09:00 ~ 17:30","opertimet"  :"09:00 ~ 12:30","opertimes"  :"미운영","tel"  :"033-639-8557\r"},{"id"  :"332","date"  :"2021년 07월 07일 21시","able"  :"○","sido"  :"강원","sigungu"  :"양구군","name"  :"양구군보건소","addr"  :"강원 양구군 양구읍 하리 34-5 양구군보건소","latitude"  :"38.1097784","longitude"  :"127.9889697","opertimew"  :"09:00 ~ 18:00","opertimet"  :"09:00 ~ 18:00","opertimes"  :"09:00 ~ 18:00","tel"  :"033-480-2550\r"},{"id"  :"333","date"  :"2021년 07월 07일 21시","able"  :"○","sido"  :"강원","sigungu"  :"양구군","name"  :"양구성심병원","addr"  :"강원 양구군 양구읍 중심로 160 ","latitude"  :"38.1045016","longitude"  :"127.9911494","opertimew"  :"00:00 ~ 24:00","opertimet"  :"00:00 ~ 24:00","opertimes"  :"00:00 ~ 24:00","tel"  :"033-480-8800\r"},